$GNGGA,020930.50,2258.20877,N,11354.27388,E,1,12,0.94,28.0,M,-3.3,M,,*65
$GNGGA,020931.00,2258.20880,N,11354.27395,E,1,12,0.94,28.0,M,-3.3,M,,*65
$GNGGA,020931.50,2258.20882,N,11354.27399,E,1,12,0.94,27.9,M,-3.3,M,,*68
$GNGGA,020932.00,2258.20885,N,11354.27403,E,1,12,0.94,27.9,M,-3.3,M,,*6D
$GNGGA,020932.50,2258.20887,N,11354.27405,E,1,12,0.94,27.9,M,-3.3,M,,*6C
$GNGGA,020933.00,2258.20886,N,11354.27405,E,1,12,0.94,27.9,M,-3.3,M,,*69
$GNGGA,020933.50,2258.20884,N,11354.27407,E,1,10,1.34,27.8,M,-3.3,M,,*64
$GNGGA,020934.00,2258.20882,N,11354.27408,E,1,10,1.34,27.8,M,-3.3,M,,*6F
$GNGGA,020934.50,2258.20880,N,11354.27411,E,1,11,1.03,27.8,M,-3.3,M,,*65
$GNGGA,020935.00,2258.20878,N,11354.27420,E,1,11,1.03,27.7,M,-3.3,M,,*6B
$GNGGA,020935.50,2258.20871,N,11354.27425,E,1,11,1.03,27.7,M,-3.3,M,,*62
$GNGGA,020936.00,2258.20862,N,11354.27431,E,1,12,1.03,27.6,M,-3.3,M,,*61
$GNGGA,020936.50,2258.20858,N,11354.27447,E,1,12,1.03,27.6,M,-3.3,M,,*6C
$GNGGA,020937.00,2258.20845,N,11354.27455,E,1,12,1.00,27.6,M,-3.3,M,,*64
$GNGGA,020937.50,2258.20829,N,11354.27468,E,1,12,0.95,27.7,M,-3.3,M,,*69
$GNGGA,020938.00,2258.20804,N,11354.27465,E,1,12,0.95,27.6,M,-3.3,M,,*60
$GNGGA,020938.50,2258.20776,N,11354.27456,E,1,12,0.88,27.3,M,-3.3,M,,*66
$GNGGA,020939.00,2258.20753,N,11354.27451,E,1,12,0.88,27.1,M,-3.3,M,,*60
$GNGGA,020939.50,2258.20737,N,11354.27457,E,1,12,1.00,27.3,M,-3.3,M,,*62
$GNGGA,020940.00,2258.20724,N,11354.27461,E,1,12,1.00,27.3,M,-3.3,M,,*6E
$GNGGA,020940.50,2258.20710,N,11354.27469,E,1,12,1.00,27.2,M,-3.3,M,,*65
$GNGGA,020941.00,2258.20698,N,11354.27480,E,1,12,1.00,27.2,M,-3.3,M,,*67
$GNGGA,020941.50,2258.20686,N,11354.27491,E,1,12,1.00,27.2,M,-3.3,M,,*6D
$GNGGA,020942.00,2258.20673,N,11354.27508,E,1,12,1.00,27.2,M,-3.3,M,,*60
$GNGGA,020942.50,2258.20655,N,11354.27516,E,1,12,1.00,27.2,M,-3.3,M,,*6E
$GNGGA,020943.00,2258.20639,N,11354.27525,E,1,12,0.82,27.2,M,-3.3,M,,*6B
$GNGGA,020943.50,2258.20619,N,11354.27533,E,1,12,0.82,27.1,M,-3.3,M,,*68
$GNGGA,020944.00,2258.20605,N,11354.27544,E,1,12,1.00,27.1,M,-3.3,M,,*6C
$GNGGA,020944.50,2258.20588,N,11354.27554,E,1,12,1.00,27.1,M,-3.3,M,,*6E
$GNGGA,020945.00,2258.20565,N,11354.27558,E,1,12,1.00,26.9,M,-3.3,M,,*6C
$GNGGA,020945.50,2258.20545,N,11354.27565,E,1,12,1.05,26.9,M,-3.3,M,,*60
$GNGGA,020946.00,2258.20520,N,11354.27564,E,1,12,1.05,27.0,M,-3.3,M,,*6C
$GNGGA,020946.50,2258.20503,N,11354.27575,E,1,12,1.00,27.0,M,-3.3,M,,*6D
$GNGGA,020947.00,2258.20486,N,11354.27589,E,1,12,1.00,27.1,M,-3.3,M,,*67
$GNGGA,020947.50,2258.20472,N,11354.27605,E,1,12,1.05,27.1,M,-3.3,M,,*6B
$GNGGA,020948.00,2258.20445,N,11354.27608,E,1,12,1.00,27.3,M,-3.3,M,,*6F
$GNGGA,020948.50,2258.20425,N,11354.27619,E,1,12,1.00,27.2,M,-3.3,M,,*6D
$GNGGA,020949.00,2258.20402,N,11354.27628,E,1,12,1.00,27.5,M,-3.3,M,,*69
$GNGGA,020949.50,2258.20386,N,11354.27641,E,1,12,1.00,27.5,M,-3.3,M,,*68
$GNGGA,020950.00,2258.20367,N,11354.27653,E,1,12,1.00,27.6,M,-3.3,M,,*6A
$GNGGA,020950.50,2258.20346,N,11354.27657,E,1,12,1.00,27.7,M,-3.3,M,,*69
$GNGGA,020951.00,2258.20328,N,11354.27659,E,1,12,1.00,27.6,M,-3.3,M,,*6A
$GNGGA,020951.50,2258.20311,N,11354.27666,E,1,12,1.00,27.5,M,-3.3,M,,*6A
$GNGGA,020952.00,2258.20291,N,11354.27671,E,1,12,1.00,27.5,M,-3.3,M,,*63
$GNGGA,020952.50,2258.20274,N,11354.27679,E,1,12,1.00,27.5,M,-3.3,M,,*65
$GNGGA,020953.00,2258.20260,N,11354.27694,E,1,12,1.00,27.4,M,-3.3,M,,*66
$GNGGA,020953.50,2258.20247,N,11354.27708,E,1,12,1.00,27.4,M,-3.3,M,,*62
$GNGGA,020954.00,2258.20231,N,11354.27724,E,1,12,1.00,27.4,M,-3.3,M,,*6F
$GNGGA,020954.50,2258.20213,N,11354.27737,E,1,12,1.00,27.4,M,-3.3,M,,*68
$GNGGA,020955.00,2258.20206,N,11354.27737,E,1,12,1.00,27.5,M,-3.3,M,,*69
$GNGGA,020955.50,2258.20193,N,11354.27740,E,1,12,1.00,27.6,M,-3.3,M,,*60
$GNGGA,020956.00,2258.20182,N,11354.27747,E,1,12,1.00,27.6,M,-3.3,M,,*61
$GNGGA,020956.50,2258.20168,N,11354.27757,E,1,12,1.00,27.7,M,-3.3,M,,*60
$GNGGA,020957.00,2258.20155,N,11354.27767,E,1,12,1.00,27.6,M,-3.3,M,,*68
$GNGGA,020957.50,2258.20144,N,11354.27775,E,1,12,1.00,27.6,M,-3.3,M,,*6E
$GNGGA,020958.00,2258.20123,N,11354.27778,E,1,12,1.00,27.6,M,-3.3,M,,*68
$GNGGA,020958.50,2258.20108,N,11354.27787,E,1,12,1.00,27.6,M,-3.3,M,,*64
$GNGGA,020959.00,2258.20098,N,11354.27797,E,1,12,1.00,27.5,M,-3.3,M,,*6A
$GNGGA,020959.50,2258.20082,N,11354.27806,E,1,12,1.00,27.4,M,-3.3,M,,*62
$GNGGA,021000.00,2258.20073,N,11354.27823,E,1,12,1.00,27.3,M,-3.3,M,,*6D
$GNGGA,021000.50,2258.20057,N,11354.27836,E,1,12,1.00,27.3,M,-3.3,M,,*6A
$GNGGA,021001.00,2258.20041,N,11354.27847,E,1,12,1.00,27.3,M,-3.3,M,,*6F
$GNGGA,021001.50,2258.20026,N,11354.27861,E,1,12,1.00,27.2,M,-3.3,M,,*6E
$GNGGA,021002.00,2258.20015,N,11354.27877,E,1,12,1.00,27.1,M,-3.3,M,,*6C
$GNGGA,021002.50,2258.20000,N,11354.27890,E,1,12,1.00,27.1,M,-3.3,M,,*64
$GNGGA,021003.00,2258.19986,N,11354.27907,E,1,12,1.00,27.0,M,-3.3,M,,*63
$GNGGA,021003.50,2258.19973,N,11354.27923,E,1,12,1.00,27.0,M,-3.3,M,,*6A
$GNGGA,021004.00,2258.19960,N,11354.27939,E,1,12,1.00,27.0,M,-3.3,M,,*61
$GNGGA,021004.50,2258.19942,N,11354.27952,E,1,12,1.00,27.0,M,-3.3,M,,*69
$GNGGA,021005.00,2258.19929,N,11354.27967,E,1,12,1.00,27.0,M,-3.3,M,,*66
$GNGGA,021005.50,2258.19908,N,11354.27976,E,1,12,1.00,27.1,M,-3.3,M,,*61
$GNGGA,021006.00,2258.19894,N,11354.27992,E,1,12,1.00,27.1,M,-3.3,M,,*69
$GNGGA,021006.50,2258.19879,N,11354.28009,E,1,12,1.00,27.1,M,-3.3,M,,*6B
$GNGGA,021007.00,2258.19863,N,11354.28027,E,1,12,1.00,27.1,M,-3.3,M,,*68
$GNGGA,021007.50,2258.19852,N,11354.28049,E,1,12,1.00,27.0,M,-3.3,M,,*66
$GNGGA,021008.00,2258.19837,N,11354.28068,E,1,12,1.00,26.9,M,-3.3,M,,*64
$GNGGA,021008.50,2258.19822,N,11354.28086,E,1,12,1.00,26.7,M,-3.3,M,,*6B
$GNGGA,021009.00,2258.19805,N,11354.28103,E,1,12,1.00,26.6,M,-3.3,M,,*67
$GNGGA,021009.50,2258.19787,N,11354.28120,E,1,12,1.00,26.5,M,-3.3,M,,*65
$GNGGA,021010.00,2258.19772,N,11354.28139,E,1,12,1.00,26.5,M,-3.3,M,,*6A
$GNGGA,021010.50,2258.19757,N,11354.28158,E,1,12,1.00,26.5,M,-3.3,M,,*6F
$GNGGA,021011.00,2258.19739,N,11354.28176,E,1,12,1.00,26.5,M,-3.3,M,,*6F
$GNGGA,021011.50,2258.19725,N,11354.28195,E,1,12,1.00,26.4,M,-3.3,M,,*6B
$GNGGA,021012.00,2258.19709,N,11354.28210,E,1,12,1.00,26.2,M,-3.3,M,,*6B
$GNGGA,021012.50,2258.19688,N,11354.28218,E,1,12,1.00,26.2,M,-3.3,M,,*6E
$GNGGA,021013.00,2258.19669,N,11354.28230,E,1,12,1.00,26.2,M,-3.3,M,,*6F
$GNGGA,021013.50,2258.19652,N,11354.28248,E,1,12,1.00,26.1,M,-3.3,M,,*6E
$GNGGA,021014.00,2258.19636,N,11354.28263,E,1,12,1.00,26.1,M,-3.3,M,,*67
$GNGGA,021014.50,2258.19625,N,11354.28281,E,1,12,1.00,26.1,M,-3.3,M,,*6C
$GNGGA,021015.00,2258.19606,N,11354.28294,E,1,12,1.00,26.2,M,-3.3,M,,*6E
$GNGGA,021015.50,2258.19588,N,11354.28308,E,1,12,1.00,26.2,M,-3.3,M,,*6A
$GNGGA,021016.00,2258.19569,N,11354.28322,E,1,12,1.00,26.2,M,-3.3,M,,*6B
$GNGGA,021016.50,2258.19551,N,11354.28333,E,1,12,1.00,26.3,M,-3.3,M,,*64
$GNGGA,021017.00,2258.19534,N,11354.28349,E,1,12,1.11,26.4,M,-3.3,M,,*69
$GNGGA,021017.50,2258.19512,N,11354.28361,E,1,12,1.11,26.5,M,-3.3,M,,*63
$GNGGA,021018.00,2258.19498,N,11354.28383,E,1,12,1.11,26.4,M,-3.3,M,,*67
$GNGGA,021018.50,2258.19486,N,11354.28402,E,1,12,1.11,26.4,M,-3.3,M,,*63
$GNGGA,021019.00,2258.19469,N,11354.28415,E,1,12,1.00,26.5,M,-3.3,M,,*61
$GNGGA,021019.50,2258.19449,N,11354.28430,E,1,12,1.00,26.6,M,-3.3,M,,*62
$GNGGA,021020.00,2258.19432,N,11354.28447,E,1,12,1.00,26.6,M,-3.3,M,,*61
$GNGGA,021020.50,2258.19409,N,11354.28458,E,1,12,1.00,26.5,M,-3.3,M,,*61
$GNGGA,021021.00,2258.19391,N,11354.28474,E,1,12,1.00,26.5,M,-3.3,M,,*6D
$GNGGA,021021.50,2258.19375,N,11354.28487,E,1,12,1.00,26.7,M,-3.3,M,,*6C
$GNGGA,021022.00,2258.19360,N,11354.28507,E,1,12,1.00,26.6,M,-3.3,M,,*66
$GNGGA,021022.50,2258.19342,N,11354.28527,E,1,12,1.00,26.6,M,-3.3,M,,*61
$GNGGA,021023.00,2258.19321,N,11354.28544,E,1,11,1.32,26.6,M,-3.3,M,,*67
$GNGGA,021023.50,2258.19304,N,11354.28564,E,1,11,1.32,26.6,M,-3.3,M,,*67
$GNGGA,021024.00,2258.19285,N,11354.28584,E,1,11,1.32,26.6,M,-3.3,M,,*63
$GNGGA,021024.50,2258.19264,N,11354.28597,E,1,12,1.32,26.7,M,-3.3,M,,*69
$GNGGA,021025.00,2258.19245,N,11354.28611,E,1,12,1.32,26.8,M,-3.3,M,,*6C
$GNGGA,021025.50,2258.19227,N,11354.28625,E,1,10,1.42,26.9,M,-3.3,M,,*6E
$GNGGA,021026.00,2258.19208,N,11354.28643,E,1,10,1.42,26.8,M,-3.3,M,,*64
$GNGGA,021026.50,2258.19191,N,11354.28660,E,1,10,1.42,26.8,M,-3.3,M,,*63
$GNGGA,021027.00,2258.19175,N,11354.28677,E,1,10,1.42,26.9,M,-3.3,M,,*6A
$GNGGA,021027.50,2258.19157,N,11354.28693,E,1,11,1.42,26.8,M,-3.3,M,,*65
$GNGGA,021028.00,2258.19139,N,11354.28707,E,1,12,1.05,26.6,M,-3.3,M,,*65
$GNGGA,021028.50,2258.19120,N,11354.28720,E,1,12,1.05,26.4,M,-3.3,M,,*6F
$GNGGA,021029.00,2258.19102,N,11354.28734,E,1,12,1.05,26.2,M,-3.3,M,,*68
$GNGGA,021029.50,2258.19093,N,11354.28751,E,1,12,1.05,26.5,M,-3.3,M,,*60
$GNGGA,021030.00,2258.19081,N,11354.28765,E,1,12,0.86,27.0,M,-3.3,M,,*67
$GNGGA,021030.50,2258.19064,N,11354.28774,E,1,12,0.86,27.2,M,-3.3,M,,*6B
$GNGGA,021031.00,2258.19046,N,11354.28780,E,1,12,1.05,27.1,M,-3.3,M,,*6D
$GNGGA,021031.50,2258.19030,N,11354.28792,E,1,12,0.86,27.1,M,-3.3,M,,*60
$GNGGA,021032.00,2258.19017,N,11354.28796,E,1,12,1.05,27.0,M,-3.3,M,,*6C
$GNGGA,021032.50,2258.19017,N,11354.28796,E,1,12,0.79,27.3,M,-3.3,M,,*60
$GNGGA,021033.00,2258.19012,N,11354.28808,E,1,12,0.86,27.5,M,-3.3,M,,*6F
$GNGGA,021033.50,2258.19013,N,11354.28816,E,1,12,0.86,27.5,M,-3.3,M,,*64
$GNGGA,021034.00,2258.19008,N,11354.28822,E,1,12,0.84,27.5,M,-3.3,M,,*69
$GNGGA,021034.50,2258.19001,N,11354.28824,E,1,12,1.03,27.5,M,-3.3,M,,*6D
$GNGGA,021035.00,2258.18994,N,11354.28819,E,1,12,0.85,27.6,M,-3.3,M,,*6F
$GNGGA,021035.50,2258.18989,N,11354.28816,E,1,12,1.03,27.5,M,-3.3,M,,*65
$GNGGA,021036.00,2258.18979,N,11354.28816,E,1,12,1.03,27.5,M,-3.3,M,,*6C
$GNGGA,021036.50,2258.18970,N,11354.28815,E,1,12,1.03,27.4,M,-3.3,M,,*62
$GNGGA,021037.00,2258.18959,N,11354.28817,E,1,12,1.03,27.3,M,-3.3,M,,*68
$GNGGA,021037.50,2258.18947,N,11354.28816,E,1,12,1.03,27.3,M,-3.3,M,,*63
$GNGGA,021038.00,2258.18936,N,11354.28815,E,1,12,1.03,27.4,M,-3.3,M,,*6B
$GNGGA,021038.50,2258.18922,N,11354.28813,E,1,12,1.03,27.6,M,-3.3,M,,*6F
$GNGGA,021039.00,2258.18906,N,11354.28812,E,1,12,1.03,27.7,M,-3.3,M,,*6D
$GNGGA,021039.50,2258.18892,N,11354.28810,E,1,12,1.03,27.7,M,-3.3,M,,*66
$GNGGA,021040.00,2258.18881,N,11354.28809,E,1,12,1.03,27.7,M,-3.3,M,,*67
$GNGGA,021040.50,2258.18867,N,11354.28806,E,1,12,1.03,27.7,M,-3.3,M,,*65
$GNGGA,021041.00,2258.18853,N,11354.28800,E,1,12,1.03,27.7,M,-3.3,M,,*60
$GNGGA,021041.50,2258.18840,N,11354.28794,E,1,12,1.06,27.7,M,-3.3,M,,*60
$GNGGA,021042.00,2258.18825,N,11354.28790,E,1,12,0.86,27.6,M,-3.3,M,,*69
$GNGGA,021042.50,2258.18805,N,11354.28790,E,1,12,0.98,27.6,M,-3.3,M,,*61
$GNGGA,021043.00,2258.18795,N,11354.28777,E,1,12,1.03,27.5,M,-3.3,M,,*6A
$GNGGA,021043.50,2258.18788,N,11354.28770,E,1,12,1.07,27.4,M,-3.3,M,,*61
$GNGGA,021044.00,2258.18774,N,11354.28762,E,1,12,1.07,27.4,M,-3.3,M,,*63
$GNGGA,021044.50,2258.18761,N,11354.28758,E,1,12,1.07,27.2,M,-3.3,M,,*6D
$GNGGA,021045.00,2258.18755,N,11354.28755,E,1,12,1.07,27.2,M,-3.3,M,,*63
$GNGGA,021045.50,2258.18756,N,11354.28758,E,1,12,1.07,27.1,M,-3.3,M,,*6B
$GNGGA,021046.00,2258.18759,N,11354.28761,E,1,12,1.07,26.9,M,-3.3,M,,*61
$GNGGA,021046.50,2258.18761,N,11354.28764,E,1,12,1.03,26.9,M,-3.3,M,,*6E
$GNGGA,021047.00,2258.18762,N,11354.28767,E,1,12,1.03,26.8,M,-3.3,M,,*6B
$GNGGA,021047.50,2258.18759,N,11354.28767,E,1,12,1.03,26.7,M,-3.3,M,,*69
$GNGGA,021048.00,2258.18755,N,11354.28762,E,1,12,1.03,26.7,M,-3.3,M,,*6A
$GNGGA,021048.50,2258.18750,N,11354.28757,E,1,12,1.03,26.6,M,-3.3,M,,*6D
$GNGGA,021049.00,2258.18743,N,11354.28751,E,1,12,1.03,26.6,M,-3.3,M,,*6D
$GNGGA,021049.50,2258.18737,N,11354.28747,E,1,12,0.87,26.4,M,-3.3,M,,*63
$GNGGA,021050.00,2258.18729,N,11354.28738,E,1,12,0.85,26.4,M,-3.3,M,,*6B
$GNGGA,021050.50,2258.18720,N,11354.28726,E,1,12,1.42,26.4,M,-3.3,M,,*62
$GNGGA,021051.00,2258.18707,N,11354.28719,E,1,12,1.03,26.3,M,-3.3,M,,*6D
$GNGGA,021051.50,2258.18690,N,11354.28721,E,1,12,1.03,26.3,M,-3.3,M,,*6C
$GNGGA,021052.00,2258.18685,N,11354.28702,E,1,12,1.07,26.3,M,-3.3,M,,*6B
$GNGGA,021052.50,2258.18676,N,11354.28694,E,1,12,1.06,26.3,M,-3.3,M,,*6D
$GNGGA,021053.00,2258.18669,N,11354.28685,E,1,12,1.03,26.0,M,-3.3,M,,*61
$GNGGA,021053.50,2258.18658,N,11354.28678,E,1,12,1.03,25.9,M,-3.3,M,,*6E
$GNGGA,021054.00,2258.18647,N,11354.28668,E,1,12,1.03,25.9,M,-3.3,M,,*63
$GNGGA,021054.50,2258.18633,N,11354.28659,E,1,12,1.03,25.9,M,-3.3,M,,*67
$GNGGA,021055.00,2258.18621,N,11354.28645,E,1,12,1.03,25.9,M,-3.3,M,,*6D
$GNGGA,021055.50,2258.18608,N,11354.28629,E,1,12,1.03,26.0,M,-3.3,M,,*63
$GNGGA,021056.00,2258.18594,N,11354.28614,E,1,12,1.03,26.0,M,-3.3,M,,*6D
$GNGGA,021056.50,2258.18579,N,11354.28598,E,1,12,1.03,25.9,M,-3.3,M,,*66
$GNGGA,021057.00,2258.18566,N,11354.28583,E,1,12,1.03,25.9,M,-3.3,M,,*66
$GNGGA,021057.50,2258.18549,N,11354.28573,E,1,12,1.09,25.8,M,-3.3,M,,*6A
$GNGGA,021058.00,2258.18532,N,11354.28561,E,1,12,1.03,25.7,M,-3.3,M,,*6A
$GNGGA,021058.50,2258.18515,N,11354.28548,E,1,12,1.03,25.7,M,-3.3,M,,*61
$GNGGA,021059.00,2258.18498,N,11354.28536,E,1,12,1.03,25.7,M,-3.3,M,,*68
$GNGGA,021059.50,2258.18480,N,11354.28524,E,1,12,1.03,25.7,M,-3.3,M,,*67
$GNGGA,021100.00,2258.18465,N,11354.28509,E,1,12,1.06,25.7,M,-3.3,M,,*6E
$GNGGA,021100.50,2258.18453,N,11354.28493,E,1,12,0.98,25.5,M,-3.3,M,,*68
$GNGGA,021101.00,2258.18441,N,11354.28475,E,1,12,1.03,25.4,M,-3.3,M,,*65
$GNGGA,021101.50,2258.18430,N,11354.28455,E,1,12,1.03,25.2,M,-3.3,M,,*62
$GNGGA,021102.00,2258.18411,N,11354.28444,E,1,12,1.05,25.2,M,-3.3,M,,*61
$GNGGA,021102.50,2258.18392,N,11354.28434,E,1,12,1.05,25.1,M,-3.3,M,,*6C
$GNGGA,021103.00,2258.18374,N,11354.28422,E,1,12,1.05,25.1,M,-3.3,M,,*67
$GNGGA,021103.50,2258.18358,N,11354.28406,E,1,12,1.05,25.0,M,-3.3,M,,*6B
$GNGGA,021104.00,2258.18338,N,11354.28396,E,1,12,1.05,24.9,M,-3.3,M,,*69
$GNGGA,021104.50,2258.18320,N,11354.28385,E,1,12,1.05,24.9,M,-3.3,M,,*67
$GNGGA,021105.00,2258.18300,N,11354.28375,E,1,12,1.05,24.8,M,-3.3,M,,*6F
$GNGGA,021105.50,2258.18287,N,11354.28356,E,1,12,1.05,24.7,M,-3.3,M,,*6A
$GNGGA,021106.00,2258.18275,N,11354.28341,E,1,12,1.05,24.6,M,-3.3,M,,*66
$GNGGA,021106.50,2258.18260,N,11354.28332,E,1,12,1.05,24.6,M,-3.3,M,,*63
$GNGGA,021107.00,2258.18237,N,11354.28330,E,1,12,1.05,24.6,M,-3.3,M,,*67
$GNGGA,021107.50,2258.18206,N,11354.28336,E,1,12,1.05,24.7,M,-3.3,M,,*67
$GNGGA,021108.00,2258.18187,N,11354.28326,E,1,12,1.30,24.6,M,-3.3,M,,*61
$GNGGA,021108.50,2258.18167,N,11354.28317,E,1,12,1.05,24.7,M,-3.3,M,,*6F
$GNGGA,021109.00,2258.18148,N,11354.28310,E,1,12,1.05,24.6,M,-3.3,M,,*60
$GNGGA,021109.50,2258.18126,N,11354.28305,E,1,12,1.05,24.5,M,-3.3,M,,*6A
$GNGGA,021110.00,2258.18108,N,11354.28292,E,1,12,0.98,24.5,M,-3.3,M,,*61
$GNGGA,021110.50,2258.18090,N,11354.28281,E,1,12,0.81,24.4,M,-3.3,M,,*6F
$GNGGA,021111.00,2258.18062,N,11354.28276,E,1,12,0.81,24.4,M,-3.3,M,,*6E
$GNGGA,021111.50,2258.18034,N,11354.28276,E,1,12,0.81,24.4,M,-3.3,M,,*68
$GNGGA,021112.00,2258.18017,N,11354.28259,E,1,12,0.98,24.4,M,-3.3,M,,*6A
$GNGGA,021112.50,2258.17998,N,11354.28245,E,1,12,0.98,24.4,M,-3.3,M,,*63
$GNGGA,021113.00,2258.17975,N,11354.28238,E,1,12,0.98,24.5,M,-3.3,M,,*6F
$GNGGA,021113.50,2258.17956,N,11354.28226,E,1,12,0.98,24.5,M,-3.3,M,,*64
$GNGGA,021114.00,2258.17939,N,11354.28213,E,1,12,1.03,24.4,M,-3.3,M,,*6B
$GNGGA,021114.50,2258.17923,N,11354.28200,E,1,12,1.03,24.4,M,-3.3,M,,*67
$GNGGA,021115.00,2258.17911,N,11354.28180,E,1,12,1.03,24.3,M,-3.3,M,,*6E
$GNGGA,021115.50,2258.17899,N,11354.28155,E,1,12,0.85,24.2,M,-3.3,M,,*6C
$GNGGA,021116.00,2258.17885,N,11354.28134,E,1,12,0.85,24.2,M,-3.3,M,,*60
$GNGGA,021116.50,2258.17872,N,11354.28112,E,1,12,0.83,24.1,M,-3.3,M,,*6C
$GNGGA,021117.00,2258.17858,N,11354.28090,E,1,12,0.83,24.0,M,-3.3,M,,*6A
$GNGGA,021117.50,2258.17840,N,11354.28071,E,1,12,0.83,24.0,M,-3.3,M,,*69
$GNGGA,021118.00,2258.17822,N,11354.28055,E,1,12,0.83,24.0,M,-3.3,M,,*61
$GNGGA,021118.50,2258.17810,N,11354.28039,E,1,12,0.83,23.9,M,-3.3,M,,*61
$GNGGA,021119.00,2258.17801,N,11354.28023,E,1,12,0.77,23.7,M,-3.3,M,,*6B
$GNGGA,021119.50,2258.17790,N,11354.28010,E,1,12,0.76,23.6,M,-3.3,M,,*69
$GNGGA,021120.00,2258.17778,N,11354.27991,E,1,12,0.76,23.5,M,-3.3,M,,*6C
$GNGGA,021120.50,2258.17773,N,11354.27961,E,1,12,0.76,23.5,M,-3.3,M,,*6D
$GNGGA,021121.00,2258.17760,N,11354.27942,E,1,12,0.76,23.5,M,-3.3,M,,*6A
$GNGGA,021121.50,2258.17747,N,11354.27924,E,1,12,0.76,23.5,M,-3.3,M,,*6A
$GNGGA,021122.00,2258.17736,N,11354.27900,E,1,12,0.76,23.5,M,-3.3,M,,*6C
$GNGGA,021122.50,2258.17725,N,11354.27877,E,1,12,0.76,23.5,M,-3.3,M,,*6A
$GNGGA,021123.00,2258.17712,N,11354.27855,E,1,12,0.76,23.5,M,-3.3,M,,*6A
$GNGGA,021123.50,2258.17697,N,11354.27832,E,1,12,0.76,23.5,M,-3.3,M,,*62
$GNGGA,021124.00,2258.17683,N,11354.27812,E,1,12,0.76,23.3,M,-3.3,M,,*61
$GNGGA,021124.50,2258.17669,N,11354.27789,E,1,12,0.76,23.4,M,-3.3,M,,*6A
$GNGGA,021125.00,2258.17656,N,11354.27767,E,1,12,0.76,23.4,M,-3.3,M,,*62
$GNGGA,021125.50,2258.17646,N,11354.27740,E,1,12,0.76,23.6,M,-3.3,M,,*61
$GNGGA,021126.00,2258.17633,N,11354.27720,E,1,12,0.76,23.6,M,-3.3,M,,*63
$GNGGA,021126.50,2258.17618,N,11354.27702,E,1,12,0.76,23.3,M,-3.3,M,,*6A
$GNGGA,021127.00,2258.17608,N,11354.27684,E,1,12,0.76,23.3,M,-3.3,M,,*60
$GNGGA,021127.50,2258.17600,N,11354.27668,E,1,12,0.76,23.1,M,-3.3,M,,*6D
$GNGGA,021128.00,2258.17593,N,11354.27647,E,1,12,0.76,23.1,M,-3.3,M,,*63
$GNGGA,021128.50,2258.17589,N,11354.27622,E,1,12,0.81,23.0,M,-3.3,M,,*67
$GNGGA,021129.00,2258.17585,N,11354.27597,E,1,12,0.92,22.8,M,-3.3,M,,*69
$GNGGA,021129.50,2258.17585,N,11354.27574,E,1,12,0.92,22.8,M,-3.3,M,,*61
$GNGGA,021130.00,2258.17584,N,11354.27548,E,1,12,0.81,22.9,M,-3.3,M,,*61
$GNGGA,021130.50,2258.17585,N,11354.27522,E,1,12,0.76,22.9,M,-3.3,M,,*61
$GNGGA,021131.00,2258.17588,N,11354.27496,E,1,12,0.76,22.9,M,-3.3,M,,*66
$GNGGA,021131.50,2258.17592,N,11354.27469,E,1,12,0.76,23.1,M,-3.3,M,,*61
$GNGGA,021132.00,2258.17594,N,11354.27446,E,1,12,0.81,23.0,M,-3.3,M,,*65
$GNGGA,021132.50,2258.17596,N,11354.27429,E,1,12,0.81,22.9,M,-3.3,M,,*63
$GNGGA,021133.00,2258.17606,N,11354.27411,E,1,12,0.81,23.0,M,-3.3,M,,*6E
$GNGGA,021133.50,2258.17616,N,11354.27389,E,1,12,0.81,23.0,M,-3.3,M,,*6C
$GNGGA,021134.00,2258.17640,N,11354.27364,E,1,12,0.89,23.2,M,-3.3,M,,*64
$GNGGA,021134.50,2258.17654,N,11354.27346,E,1,12,0.89,23.1,M,-3.3,M,,*67
$GNGGA,021135.00,2258.17668,N,11354.27331,E,1,12,0.89,23.1,M,-3.3,M,,*6C
$GNGGA,021135.50,2258.17680,N,11354.27316,E,1,12,0.89,23.0,M,-3.3,M,,*6B
$GNGGA,021136.00,2258.17694,N,11354.27300,E,1,12,0.81,22.9,M,-3.3,M,,*6F
$GNGGA,021136.50,2258.17705,N,11354.27290,E,1,12,0.81,22.9,M,-3.3,M,,*6B
$GNGGA,021137.00,2258.17716,N,11354.27281,E,1,12,0.81,22.9,M,-3.3,M,,*6D
$GNGGA,021137.50,2258.17725,N,11354.27272,E,1,12,0.81,22.8,M,-3.3,M,,*65
$GNGGA,021138.00,2258.17732,N,11354.27269,E,1,12,0.81,22.7,M,-3.3,M,,*6C
$GNGGA,021138.50,2258.17733,N,11354.27268,E,1,12,0.89,22.7,M,-3.3,M,,*61
$GNGGA,021139.00,2258.17735,N,11354.27266,E,1,12,0.89,22.6,M,-3.3,M,,*6C
$GNGGA,021139.50,2258.17735,N,11354.27267,E,1,12,0.99,22.6,M,-3.3,M,,*69
$GNGGA,021140.00,2258.17736,N,11354.27269,E,1,12,0.99,22.6,M,-3.3,M,,*6F
$GNGGA,021140.50,2258.17737,N,11354.27269,E,1,12,0.92,22.6,M,-3.3,M,,*60
$GNGGA,021141.00,2258.17743,N,11354.27264,E,1,12,0.92,22.6,M,-3.3,M,,*6A
$GNGGA,021141.50,2258.17749,N,11354.27256,E,1,12,0.92,22.5,M,-3.3,M,,*67
$GNGGA,021142.00,2258.17760,N,11354.27246,E,1,12,0.92,22.5,M,-3.3,M,,*6B
$GNGGA,021142.50,2258.17772,N,11354.27236,E,1,12,0.92,22.5,M,-3.3,M,,*6A
$GNGGA,021143.00,2258.17781,N,11354.27225,E,1,12,0.99,22.5,M,-3.3,M,,*6B
$GNGGA,021143.50,2258.17790,N,11354.27215,E,1,12,0.99,22.4,M,-3.3,M,,*6C
$GNGGA,021144.00,2258.17800,N,11354.27206,E,1,12,0.99,22.4,M,-3.3,M,,*6A
$GNGGA,021144.50,2258.17812,N,11354.27194,E,1,12,0.89,22.2,M,-3.3,M,,*63
$GNGGA,021145.00,2258.17824,N,11354.27179,E,1,12,0.89,22.2,M,-3.3,M,,*61
$GNGGA,021145.50,2258.17837,N,11354.27164,E,1,12,0.89,22.2,M,-3.3,M,,*6A
$GNGGA,021146.00,2258.17848,N,11354.27148,E,1,12,0.89,22.1,M,-3.3,M,,*69
$GNGGA,021146.50,2258.17862,N,11354.27132,E,1,12,0.81,22.1,M,-3.3,M,,*61
$GNGGA,021147.00,2258.17877,N,11354.27115,E,1,12,0.89,22.1,M,-3.3,M,,*6C
$GNGGA,021147.50,2258.17889,N,11354.27098,E,1,12,0.89,22.0,M,-3.3,M,,*6D
$GNGGA,021148.00,2258.17900,N,11354.27080,E,1,12,0.89,22.0,M,-3.3,M,,*6E
$GNGGA,021148.50,2258.17913,N,11354.27062,E,1,12,0.89,22.0,M,-3.3,M,,*65
$GNGGA,021149.00,2258.17925,N,11354.27046,E,1,12,0.89,22.0,M,-3.3,M,,*62
$GNGGA,021149.50,2258.17938,N,11354.27029,E,1,12,0.89,22.1,M,-3.3,M,,*63
$GNGGA,021150.00,2258.17951,N,11354.27012,E,1,12,0.89,22.0,M,-3.3,M,,*68
$GNGGA,021150.50,2258.17965,N,11354.26994,E,1,12,0.89,22.0,M,-3.3,M,,*6C
$GNGGA,021151.00,2258.17979,N,11354.26975,E,1,12,0.89,22.0,M,-3.3,M,,*6A
$GNGGA,021151.50,2258.17994,N,11354.26956,E,1,12,0.89,22.0,M,-3.3,M,,*6D
$GNGGA,021152.00,2258.18010,N,11354.26935,E,1,12,0.89,22.0,M,-3.3,M,,*64
$GNGGA,021152.50,2258.18026,N,11354.26914,E,1,12,0.89,22.1,M,-3.3,M,,*66
$GNGGA,021153.00,2258.18041,N,11354.26894,E,1,12,0.89,22.1,M,-3.3,M,,*6A
$GNGGA,021153.50,2258.18058,N,11354.26878,E,1,12,0.89,22.0,M,-3.3,M,,*64
$GNGGA,021154.00,2258.18074,N,11354.26859,E,1,12,0.89,22.0,M,-3.3,M,,*6B
$GNGGA,021154.50,2258.18091,N,11354.26839,E,1,12,0.89,22.0,M,-3.3,M,,*63
$GNGGA,021155.00,2258.18109,N,11354.26821,E,1,12,0.89,22.0,M,-3.3,M,,*6E
$GNGGA,021155.50,2258.18126,N,11354.26802,E,1,12,0.89,22.0,M,-3.3,M,,*67
$GNGGA,021156.00,2258.18142,N,11354.26785,E,1,12,0.89,22.0,M,-3.3,M,,*63
$GNGGA,021156.50,2258.18158,N,11354.26768,E,1,12,0.89,22.0,M,-3.3,M,,*6E
$GNGGA,021157.00,2258.18174,N,11354.26750,E,1,12,0.89,22.0,M,-3.3,M,,*6F
$GNGGA,021157.50,2258.18189,N,11354.26732,E,1,12,0.89,21.9,M,-3.3,M,,*66
$GNGGA,021158.00,2258.18205,N,11354.26712,E,1,12,0.99,21.8,M,-3.3,M,,*69
$GNGGA,021158.50,2258.18220,N,11354.26694,E,1,12,0.89,21.8,M,-3.3,M,,*65
$GNGGA,021159.00,2258.18236,N,11354.26674,E,1,12,0.89,21.8,M,-3.3,M,,*68
$GNGGA,021159.50,2258.18254,N,11354.26656,E,1,12,0.89,21.8,M,-3.3,M,,*69
$GNGGA,021200.00,2258.18270,N,11354.26636,E,1,12,0.89,21.7,M,-3.3,M,,*6C
$GNGGA,021200.50,2258.18288,N,11354.26615,E,1,12,0.85,21.7,M,-3.3,M,,*63
$GNGGA,021201.00,2258.18305,N,11354.26595,E,1,12,0.85,21.8,M,-3.3,M,,*67
$GNGGA,021201.50,2258.18323,N,11354.26574,E,1,12,0.85,21.8,M,-3.3,M,,*69
$GNGGA,021202.00,2258.18341,N,11354.26551,E,1,12,0.85,21.8,M,-3.3,M,,*6C
$GNGGA,021202.50,2258.18359,N,11354.26529,E,1,12,0.85,21.8,M,-3.3,M,,*6F
$GNGGA,021203.00,2258.18377,N,11354.26510,E,1,12,0.85,21.7,M,-3.3,M,,*62
$GNGGA,021203.50,2258.18392,N,11354.26492,E,1,12,0.85,21.6,M,-3.3,M,,*66
$GNGGA,021204.00,2258.18395,N,11354.26489,E,1,12,0.85,21.6,M,-3.3,M,,*69
$GNGGA,021204.50,2258.18396,N,11354.26489,E,1,12,0.85,21.7,M,-3.3,M,,*6E
$GNGGA,021205.00,2258.18401,N,11354.26482,E,1,12,0.96,21.7,M,-3.3,M,,*6A
$GNGGA,021205.50,2258.18401,N,11354.26479,E,1,12,0.96,21.6,M,-3.3,M,,*6A
$GNGGA,021206.00,2258.18407,N,11354.26473,E,1,12,0.96,21.7,M,-3.3,M,,*61
$GNGGA,021206.50,2258.18412,N,11354.26464,E,1,12,0.96,21.6,M,-3.3,M,,*67
$GNGGA,021207.00,2258.18422,N,11354.26453,E,1,12,0.96,21.6,M,-3.3,M,,*64
$GNGGA,021207.50,2258.18431,N,11354.26441,E,1,12,0.96,21.6,M,-3.3,M,,*60
$GNGGA,021208.00,2258.18442,N,11354.26426,E,1,12,0.91,21.6,M,-3.3,M,,*68
$GNGGA,021208.50,2258.18455,N,11354.26412,E,1,12,0.91,21.6,M,-3.3,M,,*6C
$GNGGA,021209.00,2258.18467,N,11354.26397,E,1,12,0.91,21.6,M,-3.3,M,,*63
$GNGGA,021209.50,2258.18478,N,11354.26384,E,1,12,1.00,21.6,M,-3.3,M,,*63
$GNGGA,021210.00,2258.18488,N,11354.26370,E,1,12,1.00,21.6,M,-3.3,M,,*6A
$GNGGA,021210.50,2258.18502,N,11354.26355,E,1,12,0.81,21.6,M,-3.3,M,,*63
$GNGGA,021211.00,2258.18514,N,11354.26340,E,1,12,0.91,21.6,M,-3.3,M,,*65
$GNGGA,021211.50,2258.18531,N,11354.26323,E,1,12,1.00,21.6,M,-3.3,M,,*6B
$GNGGA,021212.00,2258.18545,N,11354.26308,E,1,12,0.91,21.6,M,-3.3,M,,*6E
$GNGGA,021212.50,2258.18557,N,11354.26295,E,1,12,0.86,21.6,M,-3.3,M,,*6B
$GNGGA,021213.00,2258.18571,N,11354.26279,E,1,12,0.86,21.6,M,-3.3,M,,*69
$GNGGA,021213.50,2258.18585,N,11354.26264,E,1,12,0.86,21.5,M,-3.3,M,,*68
$GNGGA,021214.00,2258.18599,N,11354.26251,E,1,12,0.86,21.6,M,-3.3,M,,*62
$GNGGA,021214.50,2258.18613,N,11354.26237,E,1,12,0.86,21.6,M,-3.3,M,,*66
$GNGGA,021215.00,2258.18626,N,11354.26221,E,1,12,0.86,21.5,M,-3.3,M,,*60
$GNGGA,021215.50,2258.18639,N,11354.26205,E,1,12,0.80,21.5,M,-3.3,M,,*6B
$GNGGA,021216.00,2258.18653,N,11354.26190,E,1,12,0.80,21.5,M,-3.3,M,,*6E
$GNGGA,021216.50,2258.18668,N,11354.26174,E,1,12,0.80,21.6,M,-3.3,M,,*6A
$GNGGA,021217.00,2258.18684,N,11354.26157,E,1,12,0.80,21.6,M,-3.3,M,,*6D
$GNGGA,021217.50,2258.18698,N,11354.26140,E,1,12,0.79,21.6,M,-3.3,M,,*65
$GNGGA,021218.00,2258.18714,N,11354.26120,E,1,12,0.79,21.6,M,-3.3,M,,*6C
$GNGGA,021218.50,2258.18729,N,11354.26102,E,1,12,0.85,21.6,M,-3.3,M,,*64
$GNGGA,021219.00,2258.18744,N,11354.26084,E,1,12,0.85,21.5,M,-3.3,M,,*67
$GNGGA,021219.50,2258.18762,N,11354.26070,E,1,12,0.75,21.5,M,-3.3,M,,*62
$GNGGA,021220.00,2258.18776,N,11354.26054,E,1,12,0.85,21.5,M,-3.3,M,,*61
$GNGGA,021220.50,2258.18791,N,11354.26037,E,1,12,0.85,21.4,M,-3.3,M,,*69
$GNGGA,021221.00,2258.18808,N,11354.26021,E,1,12,0.75,21.4,M,-3.3,M,,*6A
$GNGGA,021221.50,2258.18828,N,11354.26005,E,1,12,0.75,21.5,M,-3.3,M,,*6A
$GNGGA,021222.00,2258.18846,N,11354.25989,E,1,12,0.75,21.5,M,-3.3,M,,*6A
$GNGGA,021222.50,2258.18863,N,11354.25971,E,1,12,0.85,21.5,M,-3.3,M,,*60
$GNGGA,021223.00,2258.18880,N,11354.25953,E,1,12,0.85,21.5,M,-3.3,M,,*69
$GNGGA,021223.50,2258.18895,N,11354.25935,E,1,12,0.85,21.5,M,-3.3,M,,*68
$GNGGA,021224.00,2258.18912,N,11354.25917,E,1,12,0.85,21.6,M,-3.3,M,,*67
$GNGGA,021224.50,2258.18931,N,11354.25901,E,1,12,0.85,21.6,M,-3.3,M,,*64
$GNGGA,021225.00,2258.18945,N,11354.25886,E,1,12,0.85,21.5,M,-3.3,M,,*6E
$GNGGA,021225.50,2258.18960,N,11354.25870,E,1,12,0.85,21.5,M,-3.3,M,,*65
$GNGGA,021226.00,2258.18974,N,11354.25852,E,1,12,0.85,21.5,M,-3.3,M,,*66
$GNGGA,021226.50,2258.18988,N,11354.25835,E,1,12,0.85,21.5,M,-3.3,M,,*61
$GNGGA,021227.00,2258.19005,N,11354.25818,E,1,12,0.75,21.5,M,-3.3,M,,*68
$GNGGA,021227.50,2258.19020,N,11354.25801,E,1,12,0.85,21.5,M,-3.3,M,,*6D
$GNGGA,021228.00,2258.19035,N,11354.25782,E,1,12,0.85,21.4,M,-3.3,M,,*66
$GNGGA,021228.50,2258.19049,N,11354.25766,E,1,12,0.85,21.3,M,-3.3,M,,*65
$GNGGA,021229.00,2258.19064,N,11354.25747,E,1,12,0.85,21.4,M,-3.3,M,,*6A
$GNGGA,021229.50,2258.19078,N,11354.25731,E,1,12,0.85,21.3,M,-3.3,M,,*64
$GNGGA,021230.00,2258.19092,N,11354.25715,E,1,12,0.95,21.3,M,-3.3,M,,*6A
$GNGGA,021230.50,2258.19107,N,11354.25697,E,1,12,0.95,21.3,M,-3.3,M,,*69
$GNGGA,021231.00,2258.19123,N,11354.25676,E,1,12,0.85,21.4,M,-3.3,M,,*62
$GNGGA,021231.50,2258.19142,N,11354.25652,E,1,12,0.85,21.5,M,-3.3,M,,*67
$GNGGA,021232.00,2258.19158,N,11354.25634,E,1,12,0.85,21.4,M,-3.3,M,,*6B
$GNGGA,021232.50,2258.19175,N,11354.25612,E,1,12,0.85,21.5,M,-3.3,M,,*64
$GNGGA,021233.00,2258.19191,N,11354.25592,E,1,12,0.85,21.5,M,-3.3,M,,*61
$GNGGA,021233.50,2258.19206,N,11354.25572,E,1,12,0.85,21.5,M,-3.3,M,,*67
$GNGGA,021234.00,2258.19222,N,11354.25550,E,1,12,0.85,21.4,M,-3.3,M,,*62
$GNGGA,021234.50,2258.19241,N,11354.25532,E,1,12,0.75,21.4,M,-3.3,M,,*69
$GNGGA,021235.00,2258.19259,N,11354.25511,E,1,12,0.85,21.3,M,-3.3,M,,*6D
$GNGGA,021235.50,2258.19280,N,11354.25491,E,1,12,0.75,21.4,M,-3.3,M,,*6D
$GNGGA,021236.00,2258.19298,N,11354.25471,E,1,12,0.75,21.3,M,-3.3,M,,*6B
$GNGGA,021236.50,2258.19314,N,11354.25451,E,1,12,0.86,21.3,M,-3.3,M,,*65
$GNGGA,021237.00,2258.19332,N,11354.25433,E,1,12,0.86,21.4,M,-3.3,M,,*66
$GNGGA,021237.50,2258.19349,N,11354.25413,E,1,12,0.86,21.3,M,-3.3,M,,*6A
$GNGGA,021238.00,2258.19367,N,11354.25392,E,1,12,0.95,21.3,M,-3.3,M,,*60
$GNGGA,021238.50,2258.19383,N,11354.25373,E,1,12,0.95,21.3,M,-3.3,M,,*60
$GNGGA,021239.00,2258.19400,N,11354.25358,E,1,12,0.86,21.3,M,-3.3,M,,*63
$GNGGA,021239.50,2258.19415,N,11354.25341,E,1,12,0.95,21.2,M,-3.3,M,,*69
$GNGGA,021240.00,2258.19432,N,11354.25322,E,1,12,0.95,21.2,M,-3.3,M,,*62
$GNGGA,021240.50,2258.19451,N,11354.25302,E,1,12,0.85,21.2,M,-3.3,M,,*61
$GNGGA,021241.00,2258.19469,N,11354.25279,E,1,12,0.75,21.4,M,-3.3,M,,*6A
$GNGGA,021241.50,2258.19485,N,11354.25262,E,1,12,0.75,21.3,M,-3.3,M,,*60
$GNGGA,021242.00,2258.19502,N,11354.25244,E,1,12,0.75,21.3,M,-3.3,M,,*6C
$GNGGA,021242.50,2258.19522,N,11354.25225,E,1,12,0.85,21.4,M,-3.3,M,,*64
$GNGGA,021243.00,2258.19539,N,11354.25206,E,1,12,0.85,21.4,M,-3.3,M,,*6B
$GNGGA,021243.50,2258.19555,N,11354.25192,E,1,12,0.85,21.3,M,-3.3,M,,*6D
$GNGGA,021244.00,2258.19570,N,11354.25175,E,1,12,0.85,21.3,M,-3.3,M,,*61
$GNGGA,021244.50,2258.19586,N,11354.25154,E,1,12,0.85,21.3,M,-3.3,M,,*6E
$GNGGA,021245.00,2258.19599,N,11354.25132,E,1,12,0.85,21.3,M,-3.3,M,,*64
$GNGGA,021245.50,2258.19617,N,11354.25109,E,1,12,0.85,21.4,M,-3.3,M,,*6B
$GNGGA,021246.00,2258.19632,N,11354.25087,E,1,12,0.85,21.5,M,-3.3,M,,*6C
$GNGGA,021246.50,2258.19645,N,11354.25066,E,1,12,0.85,21.5,M,-3.3,M,,*66
$GNGGA,021247.00,2258.19658,N,11354.25047,E,1,12,0.95,21.5,M,-3.3,M,,*6C
$GNGGA,021247.50,2258.19672,N,11354.25030,E,1,12,0.95,21.3,M,-3.3,M,,*67
$GNGGA,021248.00,2258.19684,N,11354.25011,E,1,12,0.95,21.3,M,-3.3,M,,*67
$GNGGA,021248.50,2258.19697,N,11354.24990,E,1,12,0.95,21.3,M,-3.3,M,,*61
$GNGGA,021249.00,2258.19710,N,11354.24969,E,1,12,0.95,21.3,M,-3.3,M,,*6D
$GNGGA,021249.50,2258.19722,N,11354.24950,E,1,12,0.95,21.3,M,-3.3,M,,*63
$GNGGA,021250.00,2258.19736,N,11354.24932,E,1,12,0.95,21.2,M,-3.3,M,,*6E
$GNGGA,021250.50,2258.19750,N,11354.24913,E,1,12,0.95,21.2,M,-3.3,M,,*68
$GNGGA,021251.00,2258.19766,N,11354.24896,E,1,12,0.95,21.2,M,-3.3,M,,*65
$GNGGA,021251.50,2258.19780,N,11354.24878,E,1,12,1.08,21.1,M,-3.3,M,,*6E
$GNGGA,021252.00,2258.19795,N,11354.24860,E,1,12,1.08,21.1,M,-3.3,M,,*65
$GNGGA,021252.50,2258.19808,N,11354.24842,E,1,12,0.98,21.1,M,-3.3,M,,*63
$GNGGA,021253.00,2258.19821,N,11354.24827,E,1,12,0.85,21.1,M,-3.3,M,,*63
$GNGGA,021253.50,2258.19831,N,11354.24812,E,1,12,0.95,21.1,M,-3.3,M,,*60
$GNGGA,021254.00,2258.19843,N,11354.24792,E,1,12,0.95,21.2,M,-3.3,M,,*63
$GNGGA,021254.50,2258.19853,N,11354.24775,E,1,12,0.95,21.1,M,-3.3,M,,*6D
$GNGGA,021255.00,2258.19862,N,11354.24761,E,1,12,0.95,21.1,M,-3.3,M,,*6E
$GNGGA,021255.50,2258.19864,N,11354.24757,E,1,12,0.95,21.1,M,-3.3,M,,*68
$GNGGA,021256.00,2258.19863,N,11354.24755,E,1,12,1.08,21.1,M,-3.3,M,,*6E
$GNGGA,021256.50,2258.19864,N,11354.24752,E,1,12,0.95,21.1,M,-3.3,M,,*6E
$GNGGA,021257.00,2258.19866,N,11354.24746,E,1,12,1.08,21.1,M,-3.3,M,,*68
$GNGGA,021257.50,2258.19869,N,11354.24740,E,1,12,0.95,21.2,M,-3.3,M,,*62
$GNGGA,021258.00,2258.19869,N,11354.24739,E,1,12,1.08,21.2,M,-3.3,M,,*63
$GNGGA,021258.50,2258.19870,N,11354.24739,E,1,12,1.08,21.2,M,-3.3,M,,*6E
$GNGGA,021259.00,2258.19874,N,11354.24733,E,1,12,0.84,21.3,M,-3.3,M,,*60
$GNGGA,021259.50,2258.19879,N,11354.24725,E,1,12,0.79,21.3,M,-3.3,M,,*6D
$GNGGA,021300.00,2258.19886,N,11354.24715,E,1,12,0.84,21.3,M,-3.3,M,,*64
$GNGGA,021300.50,2258.19894,N,11354.24703,E,1,12,0.84,21.4,M,-3.3,M,,*62
$GNGGA,021301.00,2258.19902,N,11354.24693,E,1,12,0.79,21.3,M,-3.3,M,,*65
$GNGGA,021301.50,2258.19910,N,11354.24683,E,1,12,0.79,21.3,M,-3.3,M,,*62
$GNGGA,021302.00,2258.19922,N,11354.24673,E,1,12,0.84,21.3,M,-3.3,M,,*68
$GNGGA,021302.50,2258.19934,N,11354.24666,E,1,12,0.79,21.3,M,-3.3,M,,*6C
$GNGGA,021303.00,2258.19946,N,11354.24660,E,1,12,0.84,21.3,M,-3.3,M,,*69
$GNGGA,021303.50,2258.19963,N,11354.24652,E,1,12,0.84,21.3,M,-3.3,M,,*6A
$GNGGA,021304.00,2258.19980,N,11354.24641,E,1,12,0.76,21.3,M,-3.3,M,,*6A
$GNGGA,021304.50,2258.19999,N,11354.24630,E,1,12,0.76,21.3,M,-3.3,M,,*61
$GNGGA,021305.00,2258.20021,N,11354.24618,E,1,12,0.76,21.3,M,-3.3,M,,*6F
$GNGGA,021305.50,2258.20041,N,11354.24609,E,1,12,0.76,21.3,M,-3.3,M,,*6C
$GNGGA,021306.00,2258.20063,N,11354.24601,E,1,12,0.76,21.4,M,-3.3,M,,*65
$GNGGA,021306.50,2258.20085,N,11354.24592,E,1,12,0.76,21.3,M,-3.3,M,,*66
$GNGGA,021307.00,2258.20105,N,11354.24584,E,1,12,0.76,21.3,M,-3.3,M,,*6C
$GNGGA,021307.50,2258.20126,N,11354.24579,E,1,12,0.78,21.2,M,-3.3,M,,*65
$GNGGA,021308.00,2258.20147,N,11354.24577,E,1,12,0.78,21.1,M,-3.3,M,,*65
$GNGGA,021308.50,2258.20167,N,11354.24576,E,1,12,0.78,21.2,M,-3.3,M,,*60
$GNGGA,021309.00,2258.20186,N,11354.24574,E,1,12,0.76,21.2,M,-3.3,M,,*67
$GNGGA,021309.50,2258.20207,N,11354.24577,E,1,12,0.76,21.2,M,-3.3,M,,*6B
$GNGGA,021310.00,2258.20230,N,11354.24578,E,1,12,0.76,21.2,M,-3.3,M,,*6D
$GNGGA,021310.50,2258.20251,N,11354.24581,E,1,12,0.76,21.4,M,-3.3,M,,*6F
$GNGGA,021311.00,2258.20277,N,11354.24588,E,1,12,0.76,21.6,M,-3.3,M,,*64
$GNGGA,021311.50,2258.20299,N,11354.24590,E,1,12,0.76,21.7,M,-3.3,M,,*69
$GNGGA,021312.00,2258.20322,N,11354.24595,E,1,12,0.76,21.7,M,-3.3,M,,*6B
$GNGGA,021312.50,2258.20343,N,11354.24598,E,1,12,0.76,21.7,M,-3.3,M,,*64
$GNGGA,021313.00,2258.20362,N,11354.24604,E,1,12,0.76,21.8,M,-3.3,M,,*6A
$GNGGA,021313.50,2258.20383,N,11354.24613,E,1,12,0.76,22.0,M,-3.3,M,,*6D
$GNGGA,021314.00,2258.20408,N,11354.24628,E,1,12,0.76,22.3,M,-3.3,M,,*60
$GNGGA,021314.50,2258.20427,N,11354.24632,E,1,12,0.78,22.4,M,-3.3,M,,*6A
$GNGGA,021315.00,2258.20444,N,11354.24630,E,1,12,0.78,22.3,M,-3.3,M,,*6E
$GNGGA,021315.50,2258.20462,N,11354.24638,E,1,12,0.78,22.5,M,-3.3,M,,*61
$GNGGA,021316.00,2258.20477,N,11354.24644,E,1,12,0.78,22.6,M,-3.3,M,,*6B
$GNGGA,021316.50,2258.20493,N,11354.24653,E,1,12,0.78,22.6,M,-3.3,M,,*62
$GNGGA,021317.00,2258.20507,N,11354.24663,E,1,12,0.78,22.5,M,-3.3,M,,*6A
$GNGGA,021317.50,2258.20524,N,11354.24675,E,1,12,0.78,22.5,M,-3.3,M,,*69
$GNGGA,021318.00,2258.20537,N,11354.24689,E,1,12,0.78,22.4,M,-3.3,M,,*63
$GNGGA,021318.50,2258.20551,N,11354.24699,E,1,12,0.78,22.3,M,-3.3,M,,*60
$GNGGA,021319.00,2258.20565,N,11354.24709,E,1,12,0.78,22.3,M,-3.3,M,,*6B
$GNGGA,021319.50,2258.20577,N,11354.24720,E,1,12,0.78,22.2,M,-3.3,M,,*67
$GNGGA,021320.00,2258.20590,N,11354.24733,E,1,12,0.78,22.2,M,-3.3,M,,*63
$GNGGA,021320.50,2258.20606,N,11354.24748,E,1,12,0.78,22.3,M,-3.3,M,,*67
$GNGGA,021321.00,2258.20623,N,11354.24765,E,1,12,0.78,22.3,M,-3.3,M,,*6B
$GNGGA,021321.50,2258.20641,N,11354.24780,E,1,12,0.92,22.3,M,-3.3,M,,*65
$GNGGA,021322.00,2258.20659,N,11354.24795,E,1,12,0.92,22.3,M,-3.3,M,,*6E
$GNGGA,021322.50,2258.20677,N,11354.24807,E,1,12,0.92,22.3,M,-3.3,M,,*63
$GNGGA,021323.00,2258.20697,N,11354.24818,E,1,12,0.92,22.2,M,-3.3,M,,*66
$GNGGA,021323.50,2258.20715,N,11354.24836,E,1,12,0.97,22.2,M,-3.3,M,,*61
$GNGGA,021324.00,2258.20733,N,11354.24851,E,1,12,0.97,22.2,M,-3.3,M,,*66
$GNGGA,021324.50,2258.20748,N,11354.24865,E,1,12,0.97,22.1,M,-3.3,M,,*6B
$GNGGA,021325.00,2258.20764,N,11354.24883,E,1,12,0.97,22.1,M,-3.3,M,,*69
$GNGGA,021325.50,2258.20782,N,11354.24899,E,1,12,0.97,22.1,M,-3.3,M,,*6F
$GNGGA,021326.00,2258.20797,N,11354.24920,E,1,12,0.97,22.0,M,-3.3,M,,*6F
$GNGGA,021326.50,2258.20811,N,11354.24941,E,1,12,0.94,22.1,M,-3.3,M,,*6E
$GNGGA,021327.00,2258.20829,N,11354.24956,E,1,12,0.92,22.3,M,-3.3,M,,*63
$GNGGA,021327.50,2258.20845,N,11354.24975,E,1,12,0.94,22.4,M,-3.3,M,,*6C
$GNGGA,021328.00,2258.20861,N,11354.24990,E,1,12,0.94,22.4,M,-3.3,M,,*6B
$GNGGA,021328.50,2258.20876,N,11354.25012,E,1,12,0.92,22.5,M,-3.3,M,,*6D
$GNGGA,021329.00,2258.20890,N,11354.25032,E,1,12,0.92,22.7,M,-3.3,M,,*61
$GNGGA,021329.50,2258.20904,N,11354.25056,E,1,12,0.92,22.9,M,-3.3,M,,*64
$GNGGA,021330.00,2258.20920,N,11354.25078,E,1,12,0.92,23.1,M,-3.3,M,,*6A
$GNGGA,021330.50,2258.20936,N,11354.25103,E,1,12,0.92,23.2,M,-3.3,M,,*66
$GNGGA,021331.00,2258.20952,N,11354.25124,E,1,12,0.92,23.5,M,-3.3,M,,*62
$GNGGA,021331.50,2258.20965,N,11354.25153,E,1,12,0.94,23.2,M,-3.3,M,,*62
$GNGGA,021332.00,2258.20983,N,11354.25177,E,1,12,0.92,23.3,M,-3.3,M,,*6D
$GNGGA,021332.50,2258.21000,N,11354.25204,E,1,12,0.94,23.2,M,-3.3,M,,*6B
$GNGGA,021333.00,2258.21016,N,11354.25231,E,1,12,0.91,23.2,M,-3.3,M,,*6B
$GNGGA,021333.50,2258.21035,N,11354.25252,E,1,12,1.14,23.4,M,-3.3,M,,*60
$GNGGA,021334.00,2258.21052,N,11354.25273,E,1,12,1.14,23.5,M,-3.3,M,,*61
$GNGGA,021334.50,2258.21068,N,11354.25292,E,1,12,1.14,23.5,M,-3.3,M,,*62
$GNGGA,021335.00,2258.21083,N,11354.25313,E,1,12,1.14,23.5,M,-3.3,M,,*6B
$GNGGA,021335.50,2258.21100,N,11354.25331,E,1,12,1.14,23.6,M,-3.3,M,,*67
$GNGGA,021336.00,2258.21114,N,11354.25349,E,1,12,1.14,23.7,M,-3.3,M,,*6A
$GNGGA,021336.50,2258.21129,N,11354.25364,E,1,12,1.14,24.0,M,-3.3,M,,*6E
$GNGGA,021337.00,2258.21145,N,11354.25387,E,1,12,0.91,23.8,M,-3.3,M,,*6E
$GNGGA,021337.50,2258.21160,N,11354.25402,E,1,12,0.91,24.0,M,-3.3,M,,*69
$GNGGA,021338.00,2258.21178,N,11354.25422,E,1,12,0.97,24.0,M,-3.3,M,,*6E
$GNGGA,021338.50,2258.21192,N,11354.25440,E,1,12,0.93,24.1,M,-3.3,M,,*6E
$GNGGA,021339.00,2258.21205,N,11354.25460,E,1,12,0.98,24.2,M,-3.3,M,,*6D
$GNGGA,021339.50,2258.21219,N,11354.25484,E,1,12,1.15,24.1,M,-3.3,M,,*68
$GNGGA,021340.00,2258.21237,N,11354.25503,E,1,12,1.15,24.0,M,-3.3,M,,*60
$GNGGA,021340.50,2258.21256,N,11354.25521,E,1,12,1.15,23.9,M,-3.3,M,,*6C
$GNGGA,021341.00,2258.21271,N,11354.25538,E,1,12,1.15,23.8,M,-3.3,M,,*64
$GNGGA,021341.50,2258.21288,N,11354.25556,E,1,12,1.15,23.6,M,-3.3,M,,*61
$GNGGA,021342.00,2258.21307,N,11354.25572,E,1,12,1.15,23.6,M,-3.3,M,,*67
$GNGGA,021342.50,2258.21327,N,11354.25591,E,1,12,1.15,23.4,M,-3.3,M,,*6F
$GNGGA,021343.00,2258.21346,N,11354.25610,E,1,12,0.93,23.3,M,-3.3,M,,*6E
$GNGGA,021343.50,2258.21363,N,11354.25630,E,1,12,0.93,23.3,M,-3.3,M,,*6E
$GNGGA,021344.00,2258.21385,N,11354.25637,E,1,12,1.15,23.4,M,-3.3,M,,*6B
$GNGGA,021344.50,2258.21399,N,11354.25657,E,1,12,1.14,23.5,M,-3.3,M,,*65
$GNGGA,021345.00,2258.21416,N,11354.25676,E,1,12,1.14,23.3,M,-3.3,M,,*64
$GNGGA,021345.50,2258.21435,N,11354.25697,E,1,12,1.14,23.4,M,-3.3,M,,*68
$GNGGA,021346.00,2258.21453,N,11354.25714,E,1,12,1.15,23.3,M,-3.3,M,,*62
$GNGGA,021346.50,2258.21467,N,11354.25729,E,1,12,1.15,23.3,M,-3.3,M,,*6E
$GNGGA,021347.00,2258.21481,N,11354.25740,E,1,12,1.15,23.4,M,-3.3,M,,*6A
$GNGGA,021347.50,2258.21497,N,11354.25751,E,1,12,1.14,23.7,M,-3.3,M,,*6A
$GNGGA,021348.00,2258.21512,N,11354.25762,E,1,12,0.86,23.7,M,-3.3,M,,*66
$GNGGA,021348.50,2258.21525,N,11354.25785,E,1,12,1.15,23.7,M,-3.3,M,,*65
$GNGGA,021349.00,2258.21540,N,11354.25803,E,1,12,1.15,23.9,M,-3.3,M,,*6D
$GNGGA,021349.50,2258.21555,N,11354.25815,E,1,12,1.15,24.0,M,-3.3,M,,*65
$GNGGA,021350.00,2258.21557,N,11354.25835,E,1,12,1.15,23.4,M,-3.3,M,,*6B
$GNGGA,021350.50,2258.21559,N,11354.25853,E,1,12,1.17,23.4,M,-3.3,M,,*62
$GNGGA,021351.00,2258.21569,N,11354.25862,E,1,12,1.15,23.3,M,-3.3,M,,*62
$GNGGA,021351.50,2258.21575,N,11354.25873,E,1,12,1.15,23.3,M,-3.3,M,,*6A
$GNGGA,021352.00,2258.21574,N,11354.25894,E,1,12,1.15,23.6,M,-3.3,M,,*61
$GNGGA,021352.50,2258.21580,N,11354.25901,E,1,12,0.86,23.9,M,-3.3,M,,*66
$GNGGA,021353.00,2258.21580,N,11354.25920,E,1,12,0.87,24.0,M,-3.3,M,,*6E
$GNGGA,021353.50,2258.21575,N,11354.25955,E,1,12,0.87,23.8,M,-3.3,M,,*6C
$GNGGA,021354.00,2258.21580,N,11354.25965,E,1,12,0.95,23.8,M,-3.3,M,,*64
$GNGGA,021354.50,2258.21586,N,11354.25963,E,1,12,0.87,24.3,M,-3.3,M,,*6E
$GNGGA,021355.00,2258.21591,N,11354.25957,E,1,12,0.87,24.5,M,-3.3,M,,*6D
$GNGGA,021355.50,2258.21591,N,11354.25958,E,1,12,0.87,24.6,M,-3.3,M,,*64
$GNGGA,021356.00,2258.21592,N,11354.25958,E,1,12,0.87,24.6,M,-3.3,M,,*61
$GNGGA,021356.50,2258.21592,N,11354.25956,E,1,12,0.87,24.6,M,-3.3,M,,*6A
$GNGGA,021357.00,2258.21588,N,11354.25963,E,1,12,0.86,24.8,M,-3.3,M,,*6C
$GNGGA,021357.50,2258.21587,N,11354.25971,E,1,12,0.94,25.0,M,-3.3,M,,*6F
$GNGGA,021358.00,2258.21586,N,11354.25984,E,1,12,0.92,25.0,M,-3.3,M,,*68
$GNGGA,021358.50,2258.21585,N,11354.25998,E,1,12,0.92,25.2,M,-3.3,M,,*61
$GNGGA,021359.00,2258.21585,N,11354.26015,E,1,12,0.92,25.3,M,-3.3,M,,*6B
$GNGGA,021359.50,2258.21585,N,11354.26037,E,1,12,0.87,25.3,M,-3.3,M,,*6A
$GNGGA,021400.00,2258.21585,N,11354.26058,E,1,12,0.90,25.4,M,-3.3,M,,*6C
$GNGGA,021400.50,2258.21586,N,11354.26079,E,1,12,0.90,25.4,M,-3.3,M,,*69
$GNGGA,021401.00,2258.21582,N,11354.26095,E,1,12,0.96,25.4,M,-3.3,M,,*6D
$GNGGA,021401.50,2258.21582,N,11354.26118,E,1,12,0.96,25.4,M,-3.3,M,,*6C
$GNGGA,021402.00,2258.21583,N,11354.26135,E,1,12,0.89,25.5,M,-3.3,M,,*6B
$GNGGA,021402.50,2258.21582,N,11354.26151,E,1,12,0.89,25.5,M,-3.3,M,,*6D
$GNGGA,021403.00,2258.21581,N,11354.26164,E,1,12,0.77,25.5,M,-3.3,M,,*6D
$GNGGA,021403.50,2258.21573,N,11354.26175,E,1,12,0.80,25.8,M,-3.3,M,,*60
$GNGGA,021404.00,2258.21564,N,11354.26186,E,1,12,0.80,26.1,M,-3.3,M,,*62
$GNGGA,021404.50,2258.21562,N,11354.26200,E,1,12,0.80,26.2,M,-3.3,M,,*6F
$GNGGA,021405.00,2258.21553,N,11354.26212,E,1,12,0.77,26.3,M,-3.3,M,,*63
$GNGGA,021405.50,2258.21551,N,11354.26226,E,1,12,0.77,26.3,M,-3.3,M,,*63
$GNGGA,021406.00,2258.21542,N,11354.26240,E,1,12,0.77,26.4,M,-3.3,M,,*60
$GNGGA,021406.50,2258.21541,N,11354.26258,E,1,12,0.77,26.3,M,-3.3,M,,*68
$GNGGA,021407.00,2258.21529,N,11354.26275,E,1,12,0.95,26.3,M,-3.3,M,,*61
$GNGGA,021407.50,2258.21520,N,11354.26290,E,1,12,0.95,26.3,M,-3.3,M,,*66
$GNGGA,021408.00,2258.21515,N,11354.26302,E,1,12,0.95,26.3,M,-3.3,M,,*60
$GNGGA,021408.50,2258.21507,N,11354.26314,E,1,12,0.89,26.4,M,-3.3,M,,*6B
$GNGGA,021409.00,2258.21503,N,11354.26329,E,1,12,0.89,26.4,M,-3.3,M,,*65
$GNGGA,021409.50,2258.21491,N,11354.26341,E,1,12,0.90,26.4,M,-3.3,M,,*6C
$GNGGA,021410.00,2258.21479,N,11354.26352,E,1,12,0.90,26.3,M,-3.3,M,,*62
$GNGGA,021410.50,2258.21469,N,11354.26366,E,1,12,0.90,26.3,M,-3.3,M,,*61
$GNGGA,021411.00,2258.21460,N,11354.26384,E,1,12,0.90,26.3,M,-3.3,M,,*60
$GNGGA,021411.50,2258.21446,N,11354.26401,E,1,12,0.90,26.2,M,-3.3,M,,*6A
$GNGGA,021412.00,2258.21438,N,11354.26422,E,1,12,0.77,26.3,M,-3.3,M,,*6C
$GNGGA,021412.50,2258.21423,N,11354.26437,E,1,12,0.89,26.4,M,-3.3,M,,*61
$GNGGA,021413.00,2258.21410,N,11354.26455,E,1,12,0.89,26.4,M,-3.3,M,,*61
$GNGGA,021413.50,2258.21392,N,11354.26469,E,1,12,0.89,26.4,M,-3.3,M,,*66
$GNGGA,021414.00,2258.21381,N,11354.26489,E,1,12,0.96,26.4,M,-3.3,M,,*66
$GNGGA,021414.50,2258.21370,N,11354.26511,E,1,12,0.96,26.5,M,-3.3,M,,*6C
$GNGGA,021415.00,2258.21354,N,11354.26529,E,1,12,0.90,26.5,M,-3.3,M,,*63
$GNGGA,021415.50,2258.21339,N,11354.26542,E,1,12,0.90,26.5,M,-3.3,M,,*60
$GNGGA,021416.00,2258.21331,N,11354.26551,E,1,12,0.90,26.3,M,-3.3,M,,*6A
$GNGGA,021416.50,2258.21322,N,11354.26559,E,1,12,0.90,26.2,M,-3.3,M,,*64
$GNGGA,021417.00,2258.21314,N,11354.26571,E,1,12,0.90,26.1,M,-3.3,M,,*6C
$GNGGA,021417.50,2258.21306,N,11354.26586,E,1,12,0.90,26.0,M,-3.3,M,,*63
$GNGGA,021418.00,2258.21298,N,11354.26606,E,1,12,0.78,25.9,M,-3.3,M,,*68
$GNGGA,021418.50,2258.21285,N,11354.26619,E,1,12,0.78,25.8,M,-3.3,M,,*6E
$GNGGA,021419.00,2258.21271,N,11354.26634,E,1,12,0.90,25.8,M,-3.3,M,,*68
$GNGGA,021419.50,2258.21244,N,11354.26632,E,1,12,0.85,25.7,M,-3.3,M,,*66
$GNGGA,021420.00,2258.21229,N,11354.26645,E,1,12,0.85,25.7,M,-3.3,M,,*62
$GNGGA,021420.50,2258.21204,N,11354.26650,E,1,12,0.85,25.7,M,-3.3,M,,*6C
$GNGGA,021421.00,2258.21198,N,11354.26674,E,1,12,0.85,25.7,M,-3.3,M,,*68
$GNGGA,021421.50,2258.21187,N,11354.26695,E,1,12,0.85,25.6,M,-3.3,M,,*6D
$GNGGA,021422.00,2258.21172,N,11354.26712,E,1,12,0.85,25.6,M,-3.3,M,,*6F
$GNGGA,021422.50,2258.21163,N,11354.26734,E,1,12,0.85,25.6,M,-3.3,M,,*6E
$GNGGA,021423.00,2258.21151,N,11354.26753,E,1,12,0.85,25.5,M,-3.3,M,,*69
$GNGGA,021423.50,2258.21142,N,11354.26774,E,1,12,0.85,25.5,M,-3.3,M,,*6B
$GNGGA,021424.00,2258.21130,N,11354.26792,E,1,12,0.79,25.5,M,-3.3,M,,*67
$GNGGA,021424.50,2258.21122,N,11354.26811,E,1,12,0.79,25.4,M,-3.3,M,,*64
$GNGGA,021425.00,2258.21111,N,11354.26830,E,1,12,0.79,25.4,M,-3.3,M,,*63
$GNGGA,021425.50,2258.21101,N,11354.26850,E,1,12,0.79,25.3,M,-3.3,M,,*66
$GNGGA,021426.00,2258.21089,N,11354.26867,E,1,12,0.79,25.3,M,-3.3,M,,*65
$GNGGA,021426.50,2258.21079,N,11354.26887,E,1,12,0.90,25.2,M,-3.3,M,,*67
$GNGGA,021427.00,2258.21065,N,11354.26903,E,1,12,0.90,25.2,M,-3.3,M,,*63
$GNGGA,021427.50,2258.21052,N,11354.26921,E,1,12,0.90,25.3,M,-3.3,M,,*63
$GNGGA,021428.00,2258.21039,N,11354.26937,E,1,12,0.90,25.2,M,-3.3,M,,*62
$GNGGA,021428.50,2258.21026,N,11354.26955,E,1,12,0.90,25.2,M,-3.3,M,,*6D
$GNGGA,021429.00,2258.21010,N,11354.26970,E,1,12,0.90,25.2,M,-3.3,M,,*6B
$GNGGA,021429.50,2258.20998,N,11354.26984,E,1,12,0.90,25.2,M,-3.3,M,,*6D
$GNGGA,021430.00,2258.20989,N,11354.26994,E,1,12,0.90,25.2,M,-3.3,M,,*61
$GNGGA,021430.50,2258.20982,N,11354.27002,E,1,12,0.90,25.2,M,-3.3,M,,*68
$GNGGA,021431.00,2258.20974,N,11354.27014,E,1,12,0.90,25.1,M,-3.3,M,,*61
$GNGGA,021431.50,2258.20961,N,11354.27031,E,1,12,0.90,25.2,M,-3.3,M,,*64
$GNGGA,021432.00,2258.20943,N,11354.27043,E,1,12,0.90,25.0,M,-3.3,M,,*65
$GNGGA,021432.50,2258.20927,N,11354.27059,E,1,12,0.90,25.0,M,-3.3,M,,*69
$GNGGA,021433.00,2258.20912,N,11354.27077,E,1,12,0.90,24.8,M,-3.3,M,,*6E
$GNGGA,021433.50,2258.20898,N,11354.27092,E,1,12,0.90,24.8,M,-3.3,M,,*63
$GNGGA,021434.00,2258.20880,N,11354.27104,E,1,12,0.90,24.8,M,-3.3,M,,*66
$GNGGA,021434.50,2258.20864,N,11354.27122,E,1,12,0.90,24.7,M,-3.3,M,,*62
$GNGGA,021435.00,2258.20837,N,11354.27129,E,1,12,0.90,24.8,M,-3.3,M,,*64
$GNGGA,021435.50,2258.20823,N,11354.27151,E,1,12,0.90,24.8,M,-3.3,M,,*6B
$GNGGA,021436.00,2258.20812,N,11354.27173,E,1,12,0.90,24.7,M,-3.3,M,,*60
$GNGGA,021436.50,2258.20798,N,11354.27191,E,1,12,0.90,24.7,M,-3.3,M,,*64
$GNGGA,021437.00,2258.20784,N,11354.27211,E,1,12,0.90,24.6,M,-3.3,M,,*67
$GNGGA,021437.50,2258.20768,N,11354.27229,E,1,12,0.90,24.6,M,-3.3,M,,*6B
$GNGGA,021438.00,2258.20743,N,11354.27235,E,1,12,0.90,24.5,M,-3.3,M,,*66
$GNGGA,021438.50,2258.20727,N,11354.27251,E,1,12,0.90,24.4,M,-3.3,M,,*62
$GNGGA,021439.00,2258.20709,N,11354.27269,E,1,12,0.90,24.4,M,-3.3,M,,*61
$GNGGA,021439.50,2258.20691,N,11354.27287,E,1,12,0.90,24.3,M,-3.3,M,,*63
$GNGGA,021440.00,2258.20675,N,11354.27308,E,1,12,0.90,24.3,M,-3.3,M,,*64
$GNGGA,021440.50,2258.20658,N,11354.27324,E,1,12,0.90,24.2,M,-3.3,M,,*61
$GNGGA,021441.00,2258.20639,N,11354.27341,E,1,12,0.90,24.2,M,-3.3,M,,*61
$GNGGA,021441.50,2258.20620,N,11354.27357,E,1,12,0.90,24.1,M,-3.3,M,,*68
$GNGGA,021442.00,2258.20605,N,11354.27376,E,1,12,0.90,24.1,M,-3.3,M,,*6A
$GNGGA,021442.50,2258.20586,N,11354.27392,E,1,12,0.90,24.0,M,-3.3,M,,*6C
$GNGGA,021443.00,2258.20568,N,11354.27412,E,1,12,0.90,23.9,M,-3.3,M,,*69
$GNGGA,021443.50,2258.20551,N,11354.27435,E,1,12,0.90,23.9,M,-3.3,M,,*63
$GNGGA,021444.00,2258.20534,N,11354.27455,E,1,12,0.90,23.8,M,-3.3,M,,*65
$GNGGA,021444.50,2258.20515,N,11354.27476,E,1,12,0.90,23.8,M,-3.3,M,,*62
$GNGGA,021445.00,2258.20496,N,11354.27496,E,1,12,0.90,23.7,M,-3.3,M,,*6D
$GNGGA,021445.50,2258.20478,N,11354.27516,E,1,12,0.90,23.7,M,-3.3,M,,*61
$GNGGA,021446.00,2258.20463,N,11354.27537,E,1,12,0.90,23.7,M,-3.3,M,,*6E
$GNGGA,021446.50,2258.20445,N,11354.27555,E,1,12,0.90,23.7,M,-3.3,M,,*6B
$GNGGA,021447.00,2258.20425,N,11354.27575,E,1,12,0.90,23.7,M,-3.3,M,,*6B
$GNGGA,021447.50,2258.20408,N,11354.27595,E,1,12,0.90,23.8,M,-3.3,M,,*60
$GNGGA,021448.00,2258.20389,N,11354.27611,E,1,12,0.90,23.9,M,-3.3,M,,*6A
$GNGGA,021448.50,2258.20378,N,11354.27627,E,1,12,0.94,23.9,M,-3.3,M,,*60
$GNGGA,021449.00,2258.20365,N,11354.27644,E,1,12,0.90,23.8,M,-3.3,M,,*68
$GNGGA,021449.50,2258.20348,N,11354.27658,E,1,12,0.98,23.8,M,-3.3,M,,*67
$GNGGA,021450.00,2258.20330,N,11354.27674,E,1,12,0.90,23.9,M,-3.3,M,,*62
$GNGGA,021450.50,2258.20308,N,11354.27686,E,1,12,0.74,23.8,M,-3.3,M,,*6A
$GNGGA,021451.00,2258.20291,N,11354.27707,E,1,12,0.74,23.8,M,-3.3,M,,*67
$GNGGA,021451.50,2258.20270,N,11354.27725,E,1,12,0.74,23.9,M,-3.3,M,,*6C
$GNGGA,021452.00,2258.20253,N,11354.27746,E,1,12,0.74,23.9,M,-3.3,M,,*6E
$GNGGA,021452.50,2258.20230,N,11354.27759,E,1,12,0.74,23.9,M,-3.3,M,,*60
$GNGGA,021453.00,2258.20211,N,11354.27774,E,1,12,0.90,23.9,M,-3.3,M,,*62
$GNGGA,021453.50,2258.20190,N,11354.27792,E,1,12,0.90,23.9,M,-3.3,M,,*65
$GNGGA,021454.00,2258.20173,N,11354.27811,E,1,12,0.90,23.8,M,-3.3,M,,*6F
$GNGGA,021454.50,2258.20157,N,11354.27836,E,1,12,0.90,23.7,M,-3.3,M,,*66
$GNGGA,021455.00,2258.20136,N,11354.27851,E,1,12,0.90,23.7,M,-3.3,M,,*64
$GNGGA,021455.50,2258.20118,N,11354.27873,E,1,12,0.90,23.6,M,-3.3,M,,*6C
$GNGGA,021456.00,2258.20102,N,11354.27894,E,1,12,0.90,23.5,M,-3.3,M,,*6B
$GNGGA,021456.50,2258.20084,N,11354.27911,E,1,12,0.90,23.5,M,-3.3,M,,*6D
$GNGGA,021457.00,2258.20067,N,11354.27930,E,1,12,0.90,23.6,M,-3.3,M,,*64
$GNGGA,021457.50,2258.20049,N,11354.27945,E,1,12,0.90,23.5,M,-3.3,M,,*6C
$GNGGA,021458.00,2258.20039,N,11354.27967,E,1,12,0.74,23.6,M,-3.3,M,,*68
$GNGGA,021458.50,2258.20026,N,11354.27986,E,1,12,0.74,23.6,M,-3.3,M,,*6C
$GNGGA,021459.00,2258.20010,N,11354.28002,E,1,12,0.74,23.5,M,-3.3,M,,*64
$GNGGA,021459.50,2258.19996,N,11354.28019,E,1,12,0.74,23.4,M,-3.3,M,,*67
$GNGGA,021500.00,2258.19978,N,11354.28038,E,1,12,0.74,23.3,M,-3.3,M,,*6B
$GNGGA,021500.50,2258.19961,N,11354.28058,E,1,12,0.90,23.3,M,-3.3,M,,*6A
$GNGGA,021501.00,2258.19943,N,11354.28074,E,1,12,0.90,23.2,M,-3.3,M,,*61
$GNGGA,021501.50,2258.19924,N,11354.28091,E,1,12,0.90,23.2,M,-3.3,M,,*6E
$GNGGA,021502.00,2258.19904,N,11354.28108,E,1,12,0.90,23.1,M,-3.3,M,,*68
$GNGGA,021502.50,2258.19889,N,11354.28126,E,1,12,0.90,23.1,M,-3.3,M,,*65
$GNGGA,021503.00,2258.19876,N,11354.28143,E,1,12,0.90,23.0,M,-3.3,M,,*63
$GNGGA,021503.50,2258.19862,N,11354.28162,E,1,12,0.90,23.1,M,-3.3,M,,*61
$GNGGA,021504.00,2258.19865,N,11354.28200,E,1,12,0.90,23.1,M,-3.3,M,,*63
$GNGGA,021504.50,2258.19852,N,11354.28222,E,1,12,0.90,23.0,M,-3.3,M,,*63
$GNGGA,021505.00,2258.19833,N,11354.28241,E,1,12,0.90,22.9,M,-3.3,M,,*6D
$GNGGA,021505.50,2258.19816,N,11354.28262,E,1,12,0.90,22.8,M,-3.3,M,,*6F
$GNGGA,021506.00,2258.19808,N,11354.28291,E,1,12,0.90,22.8,M,-3.3,M,,*6A
$GNGGA,021506.50,2258.19794,N,11354.28310,E,1,12,0.90,22.6,M,-3.3,M,,*63
$GNGGA,021507.00,2258.19783,N,11354.28305,E,1,12,0.79,22.5,M,-3.3,M,,*61
$GNGGA,021507.50,2258.19773,N,11354.28306,E,1,12,0.79,22.5,M,-3.3,M,,*68
$GNGGA,021508.00,2258.19758,N,11354.28309,E,1,12,0.79,22.6,M,-3.3,M,,*67
$GNGGA,021508.50,2258.19743,N,11354.28312,E,1,12,0.79,22.6,M,-3.3,M,,*62
$GNGGA,021509.00,2258.19724,N,11354.28310,E,1,12,0.79,22.7,M,-3.3,M,,*64
$GNGGA,021509.50,2258.19708,N,11354.28309,E,1,12,0.84,22.8,M,-3.3,M,,*6A
$GNGGA,021510.00,2258.19688,N,11354.28313,E,1,12,0.84,22.8,M,-3.3,M,,*65
$GNGGA,021510.50,2258.19658,N,11354.28310,E,1,12,0.84,22.9,M,-3.3,M,,*6F
$GNGGA,021511.00,2258.19633,N,11354.28317,E,1,12,0.84,22.9,M,-3.3,M,,*61
$GNGGA,021511.50,2258.19613,N,11354.28323,E,1,12,0.84,23.0,M,-3.3,M,,*69
$GNGGA,021512.00,2258.19594,N,11354.28333,E,1,12,0.84,23.1,M,-3.3,M,,*63
$GNGGA,021512.50,2258.19577,N,11354.28345,E,1,12,0.94,23.0,M,-3.3,M,,*6A
$GNGGA,021513.00,2258.19561,N,11354.28349,E,1,12,0.94,23.0,M,-3.3,M,,*65
$GNGGA,021513.50,2258.19548,N,11354.28357,E,1,12,0.94,23.0,M,-3.3,M,,*64
$GNGGA,021514.00,2258.19534,N,11354.28362,E,1,12,1.27,22.9,M,-3.3,M,,*6A
$GNGGA,021514.50,2258.19524,N,11354.28373,E,1,12,1.25,22.9,M,-3.3,M,,*6C
$GNGGA,021515.00,2258.19512,N,11354.28378,E,1,12,1.12,22.8,M,-3.3,M,,*63
$GNGGA,021515.50,2258.19504,N,11354.28388,E,1,12,1.32,22.8,M,-3.3,M,,*6C
$GNGGA,021516.00,2258.19494,N,11354.28395,E,1,12,1.32,22.8,M,-3.3,M,,*6E
$GNGGA,021516.50,2258.19488,N,11354.28397,E,1,12,1.32,22.7,M,-3.3,M,,*6B
$GNGGA,021517.00,2258.19483,N,11354.28400,E,1,12,1.00,22.7,M,-3.3,M,,*6C
$GNGGA,021517.50,2258.19480,N,11354.28399,E,1,12,0.94,22.6,M,-3.3,M,,*60
$GNGGA,021518.00,2258.19478,N,11354.28397,E,1,12,0.94,22.6,M,-3.3,M,,*63
$GNGGA,021518.50,2258.19476,N,11354.28395,E,1,12,1.00,22.6,M,-3.3,M,,*66
$GNGGA,021519.00,2258.19474,N,11354.28393,E,1,12,0.94,22.5,M,-3.3,M,,*69
$GNGGA,021519.50,2258.19470,N,11354.28388,E,1,12,1.04,22.4,M,-3.3,M,,*6B
$GNGGA,021520.00,2258.19465,N,11354.28381,E,1,12,1.04,22.4,M,-3.3,M,,*69
$GNGGA,021520.50,2258.19461,N,11354.28378,E,1,12,1.12,22.4,M,-3.3,M,,*69
$GNGGA,021521.00,2258.19459,N,11354.28375,E,1,12,1.04,22.3,M,-3.3,M,,*6B
$GNGGA,021521.50,2258.19456,N,11354.28370,E,1,12,1.04,22.3,M,-3.3,M,,*64
$GNGGA,021522.00,2258.19453,N,11354.28367,E,1,12,1.29,22.3,M,-3.3,M,,*6E
$GNGGA,021522.50,2258.19452,N,11354.28366,E,1,12,1.06,22.2,M,-3.3,M,,*67
$GNGGA,021523.00,2258.19451,N,11354.28364,E,1,12,1.06,22.1,M,-3.3,M,,*61
$GNGGA,021523.50,2258.19449,N,11354.28360,E,1,12,1.06,22.1,M,-3.3,M,,*69
$GNGGA,021524.00,2258.19448,N,11354.28358,E,1,12,1.06,22.0,M,-3.3,M,,*60
$GNGGA,021524.50,2258.19446,N,11354.28355