$GNGGA,020456.00,2258.18836,N,11354.28894,E,1,05,2.31,28.4,M,-3.3,M,,*65
$GNGGA,020456.50,2258.18840,N,11354.28888,E,1,05,2.31,28.2,M,-3.3,M,,*6A
$GNGGA,020457.00,2258.18848,N,11354.28871,E,1,05,2.31,28.0,M,-3.3,M,,*62
$GNGGA,020457.50,2258.18857,N,11354.28849,E,1,05,2.32,27.8,M,-3.3,M,,*66
$GNGGA,020458.00,2258.18866,N,11354.28829,E,1,05,2.32,27.7,M,-3.3,M,,*67
$GNGGA,020458.50,2258.18870,N,11354.28818,E,1,05,2.32,27.6,M,-3.3,M,,*66
$GNGGA,020459.00,2258.18875,N,11354.28803,E,1,05,2.32,27.5,M,-3.3,M,,*6E
$GNGGA,020459.50,2258.18877,N,11354.28797,E,1,05,2.32,27.4,M,-3.3,M,,*6A
$GNGGA,020500.00,2258.18876,N,11354.28795,E,1,05,2.32,27.2,M,-3.3,M,,*67
$GNGGA,020500.50,2258.18877,N,11354.28802,E,1,07,1.57,26.9,M,-3.3,M,,*6A
$GNGGA,020501.00,2258.18877,N,11354.28814,E,1,07,1.57,26.5,M,-3.3,M,,*65
$GNGGA,020501.50,2258.18877,N,11354.28825,E,1,07,1.57,26.2,M,-3.3,M,,*65
$GNGGA,020502.00,2258.18878,N,11354.28835,E,1,07,1.57,25.9,M,-3.3,M,,*65
$GNGGA,020502.50,2258.18877,N,11354.28850,E,1,07,1.57,25.5,M,-3.3,M,,*60
$GNGGA,020503.00,2258.18879,N,11354.28853,E,1,07,1.57,25.4,M,-3.3,M,,*68
$GNGGA,020503.50,2258.18877,N,11354.28867,E,1,07,1.57,25.2,M,-3.3,M,,*62
$GNGGA,020504.00,2258.18879,N,11354.28860,E,1,07,1.57,25.2,M,-3.3,M,,*69
$GNGGA,020504.50,2258.18877,N,11354.28867,E,1,07,1.57,25.1,M,-3.3,M,,*66
$GNGGA,020505.00,2258.18878,N,11354.28860,E,1,07,1.57,25.3,M,-3.3,M,,*68
$GNGGA,020505.50,2258.18877,N,11354.28855,E,1,07,1.57,25.2,M,-3.3,M,,*65
$GNGGA,020506.00,2258.18883,N,11354.28850,E,1,07,1.57,25.1,M,-3.3,M,,*6E
$GNGGA,020506.50,2258.18883,N,11354.28853,E,1,07,1.57,25.3,M,-3.3,M,,*6A
$GNGGA,020507.00,2258.18887,N,11354.28856,E,1,07,1.57,25.5,M,-3.3,M,,*69
$GNGGA,020507.50,2258.18887,N,11354.28847,E,1,07,1.57,25.6,M,-3.3,M,,*6F
$GNGGA,020508.00,2258.18897,N,11354.28832,E,1,07,1.57,25.6,M,-3.3,M,,*66
$GNGGA,020508.50,2258.18916,N,11354.28823,E,1,06,3.39,25.1,M,-3.3,M,,*67
$GNGGA,020509.00,2258.18929,N,11354.28824,E,1,06,3.39,24.6,M,-3.3,M,,*6E
$GNGGA,020509.50,2258.18936,N,11354.28810,E,1,07,1.57,24.8,M,-3.3,M,,*67
$GNGGA,020510.00,2258.18939,N,11354.28813,E,1,07,1.57,24.8,M,-3.3,M,,*66
$GNGGA,020510.50,2258.18937,N,11354.28814,E,1,07,1.57,24.8,M,-3.3,M,,*6A
$GNGGA,020511.00,2258.18937,N,11354.28803,E,1,07,1.57,25.0,M,-3.3,M,,*61
$GNGGA,020511.50,2258.18933,N,11354.28799,E,1,07,1.57,25.0,M,-3.3,M,,*6C
$GNGGA,020512.00,2258.18918,N,11354.28821,E,1,07,1.57,24.8,M,-3.3,M,,*66
$GNGGA,020512.50,2258.18915,N,11354.28819,E,1,07,1.57,24.8,M,-3.3,M,,*65
$GNGGA,020513.00,2258.18913,N,11354.28809,E,1,07,1.57,24.9,M,-3.3,M,,*67
$GNGGA,020513.50,2258.18913,N,11354.28808,E,1,07,1.57,24.6,M,-3.3,M,,*6C
$GNGGA,020514.00,2258.18910,N,11354.28810,E,1,07,1.57,24.3,M,-3.3,M,,*61
$GNGGA,020514.50,2258.18906,N,11354.28815,E,1,07,1.57,24.1,M,-3.3,M,,*64
$GNGGA,020515.00,2258.18904,N,11354.28810,E,1,07,1.57,23.8,M,-3.3,M,,*69
$GNGGA,020515.50,2258.18904,N,11354.28806,E,1,07,1.57,23.7,M,-3.3,M,,*64
$GNGGA,020516.00,2258.18906,N,11354.28802,E,1,07,1.57,23.5,M,-3.3,M,,*66
$GNGGA,020516.50,2258.18906,N,11354.28805,E,1,07,1.57,23.4,M,-3.3,M,,*65
$GNGGA,020517.00,2258.18904,N,11354.28807,E,1,07,1.57,23.3,M,-3.3,M,,*66
$GNGGA,020517.50,2258.18903,N,11354.28808,E,1,07,1.57,23.2,M,-3.3,M,,*6A
$GNGGA,020518.00,2258.18904,N,11354.28804,E,1,07,1.57,23.1,M,-3.3,M,,*68
$GNGGA,020518.50,2258.18903,N,11354.28802,E,1,07,1.57,23.0,M,-3.3,M,,*6D
$GNGGA,020519.00,2258.18909,N,11354.28796,E,1,07,1.57,22.9,M,-3.3,M,,*69
$GNGGA,020519.50,2258.18909,N,11354.28802,E,1,07,1.57,22.7,M,-3.3,M,,*60
$GNGGA,020520.00,2258.18909,N,11354.28810,E,1,07,1.57,22.6,M,-3.3,M,,*6D
$GNGGA,020520.50,2258.18914,N,11354.28819,E,1,07,1.57,22.5,M,-3.3,M,,*6E
$GNGGA,020521.00,2258.18923,N,11354.28823,E,1,07,1.57,22.3,M,-3.3,M,,*61
$GNGGA,020521.50,2258.18931,N,11354.28831,E,1,07,1.57,22.3,M,-3.3,M,,*64
$GNGGA,020522.00,2258.18938,N,11354.28838,E,1,07,1.57,22.3,M,-3.3,M,,*62
$GNGGA,020522.50,2258.18947,N,11354.28848,E,1,07,1.57,22.3,M,-3.3,M,,*68
$GNGGA,020523.00,2258.18957,N,11354.28860,E,1,07,1.57,22.3,M,-3.3,M,,*67
$GNGGA,020523.50,2258.18966,N,11354.28874,E,1,07,1.57,22.4,M,-3.3,M,,*62
$GNGGA,020524.00,2258.18975,N,11354.28884,E,1,07,1.57,22.3,M,-3.3,M,,*6A
$GNGGA,020524.50,2258.18981,N,11354.28900,E,1,07,1.57,22.3,M,-3.3,M,,*69
$GNGGA,020525.00,2258.18986,N,11354.28918,E,1,07,1.57,22.3,M,-3.3,M,,*63
$GNGGA,020525.50,2258.18992,N,11354.28933,E,1,07,1.57,22.4,M,-3.3,M,,*6D
$GNGGA,020526.00,2258.18998,N,11354.28950,E,1,07,1.57,22.4,M,-3.3,M,,*64
$GNGGA,020526.50,2258.19006,N,11354.28965,E,1,07,1.57,22.4,M,-3.3,M,,*68
$GNGGA,020527.00,2258.19015,N,11354.28976,E,1,07,1.57,22.4,M,-3.3,M,,*6C
$GNGGA,020527.50,2258.19027,N,11354.28987,E,1,07,1.57,22.5,M,-3.3,M,,*67
$GNGGA,020528.00,2258.19037,N,11354.29000,E,1,07,1.57,22.5,M,-3.3,M,,*6B
$GNGGA,020528.50,2258.19047,N,11354.29017,E,1,07,1.57,22.4,M,-3.3,M,,*6E
$GNGGA,020529.00,2258.19055,N,11354.29037,E,1,07,1.57,22.5,M,-3.3,M,,*6A
$GNGGA,020529.50,2258.19063,N,11354.29052,E,1,07,1.57,22.5,M,-3.3,M,,*69
$GNGGA,020530.00,2258.19075,N,11354.29052,E,1,07,1.57,22.8,M,-3.3,M,,*6E
$GNGGA,020530.50,2258.19084,N,11354.29060,E,1,07,1.57,22.8,M,-3.3,M,,*64
$GNGGA,020531.00,2258.19095,N,11354.29070,E,1,07,1.57,22.6,M,-3.3,M,,*6F
$GNGGA,020531.50,2258.19106,N,11354.29083,E,1,07,1.57,22.5,M,-3.3,M,,*6E
$GNGGA,020532.00,2258.19115,N,11354.29093,E,1,07,1.57,22.5,M,-3.3,M,,*6B
$GNGGA,020532.50,2258.19124,N,11354.29102,E,1,07,1.57,22.6,M,-3.3,M,,*66
$GNGGA,020533.00,2258.19134,N,11354.29115,E,1,07,1.57,22.7,M,-3.3,M,,*64
$GNGGA,020533.50,2258.19143,N,11354.29125,E,1,07,1.57,22.7,M,-3.3,M,,*62
$GNGGA,020534.00,2258.19151,N,11354.29135,E,1,07,1.57,22.8,M,-3.3,M,,*6D
$GNGGA,020534.50,2258.19161,N,11354.29148,E,1,07,1.57,22.8,M,-3.3,M,,*61
$GNGGA,020535.00,2258.19170,N,11354.29166,E,1,07,1.57,22.8,M,-3.3,M,,*69
$GNGGA,020535.50,2258.19182,N,11354.29179,E,1,07,1.57,22.8,M,-3.3,M,,*6F
$GNGGA,020536.00,2258.19192,N,11354.29194,E,1,07,1.57,22.7,M,-3.3,M,,*64
$GNGGA,020536.50,2258.19206,N,11354.29207,E,1,07,1.57,22.6,M,-3.3,M,,*67
$GNGGA,020537.00,2258.19217,N,11354.29224,E,1,07,1.57,22.6,M,-3.3,M,,*62
$GNGGA,020537.50,2258.19228,N,11354.29235,E,1,07,1.57,22.6,M,-3.3,M,,*6B
$GNGGA,020538.00,2258.19242,N,11354.29247,E,1,07,1.57,22.5,M,-3.3,M,,*6B
$GNGGA,020538.50,2258.19255,N,11354.29260,E,1,07,1.57,22.4,M,-3.3,M,,*6C
$GNGGA,020539.00,2258.19265,N,11354.29270,E,1,07,1.57,22.2,M,-3.3,M,,*6C
$GNGGA,020539.50,2258.19275,N,11354.29280,E,1,07,1.57,22.4,M,-3.3,M,,*61
$GNGGA,020540.00,2258.19285,N,11354.29294,E,1,07,1.57,22.5,M,-3.3,M,,*61
$GNGGA,020540.50,2258.19296,N,11354.29313,E,1,07,1.57,22.4,M,-3.3,M,,*69
$GNGGA,020541.00,2258.19306,N,11354.29331,E,1,07,1.57,22.4,M,-3.3,M,,*65
$GNGGA,020541.50,2258.19320,N,11354.29348,E,1,07,1.57,22.4,M,-3.3,M,,*6A
$GNGGA,020542.00,2258.19334,N,11354.29365,E,1,07,1.57,22.5,M,-3.3,M,,*67
$GNGGA,020542.50,2258.19348,N,11354.29387,E,1,07,1.57,22.5,M,-3.3,M,,*65
$GNGGA,020543.00,2258.19362,N,11354.29406,E,1,07,1.57,22.5,M,-3.3,M,,*67
$GNGGA,020543.50,2258.19375,N,11354.29425,E,1,07,1.57,22.4,M,-3.3,M,,*64
$GNGGA,020544.00,2258.19387,N,11354.29448,E,1,07,1.57,22.4,M,-3.3,M,,*60
$GNGGA,020544.50,2258.19400,N,11354.29467,E,1,08,1.51,22.4,M,-3.3,M,,*69
$GNGGA,020545.00,2258.19414,N,11354.29482,E,1,08,1.51,22.6,M,-3.3,M,,*61
$GNGGA,020545.50,2258.19429,N,11354.29498,E,1,08,1.51,22.6,M,-3.3,M,,*61
$GNGGA,020546.00,2258.19445,N,11354.29516,E,1,08,1.51,22.6,M,-3.3,M,,*6A
$GNGGA,020546.50,2258.19461,N,11354.29529,E,1,08,1.51,22.7,M,-3.3,M,,*64
$GNGGA,020547.00,2258.19477,N,11354.29545,E,1,08,1.51,22.8,M,-3.3,M,,*62
$GNGGA,020547.50,2258.19492,N,11354.29561,E,1,08,1.51,22.9,M,-3.3,M,,*6B
$GNGGA,020548.00,2258.19508,N,11354.29577,E,1,08,1.51,22.9,M,-3.3,M,,*64
$GNGGA,020548.50,2258.19525,N,11354.29601,E,1,08,1.51,22.6,M,-3.3,M,,*63
$GNGGA,020549.00,2258.19542,N,11354.29622,E,1,08,1.51,22.5,M,-3.3,M,,*64
$GNGGA,020549.50,2258.19560,N,11354.29633,E,1,08,1.51,22.5,M,-3.3,M,,*61
$GNGGA,020550.00,2258.19575,N,11354.29648,E,1,08,1.51,22.6,M,-3.3,M,,*67
$GNGGA,020550.50,2258.19592,N,11354.29662,E,1,08,1.51,22.5,M,-3.3,M,,*60
$GNGGA,020551.00,2258.19608,N,11354.29679,E,1,08,1.51,22.5,M,-3.3,M,,*6E
$GNGGA,020551.50,2258.19622,N,11354.29695,E,1,08,1.51,22.6,M,-3.3,M,,*62
$GNGGA,020552.00,2258.19628,N,11354.29704,E,1,08,1.51,22.7,M,-3.3,M,,*66
$GNGGA,020552.50,2258.19636,N,11354.29716,E,1,08,1.51,22.6,M,-3.3,M,,*6E
$GNGGA,020553.00,2258.19645,N,11354.29734,E,1,08,1.51,22.6,M,-3.3,M,,*6E
$GNGGA,020553.50,2258.19652,N,11354.29753,E,1,08,1.51,22.6,M,-3.3,M,,*6C
$GNGGA,020554.00,2258.19664,N,11354.29762,E,1,08,1.51,22.7,M,-3.3,M,,*68
$GNGGA,020554.50,2258.19672,N,11354.29773,E,1,08,1.51,22.7,M,-3.3,M,,*6A
$GNGGA,020555.00,2258.19672,N,11354.29778,E,1,08,1.51,22.7,M,-3.3,M,,*65
$GNGGA,020555.50,2258.19669,N,11354.29780,E,1,08,1.51,22.7,M,-3.3,M,,*6D
$GNGGA,020556.00,2258.19667,N,11354.29782,E,1,08,1.51,22.6,M,-3.3,M,,*66
$GNGGA,020556.50,2258.19666,N,11354.29782,E,1,08,1.51,22.6,M,-3.3,M,,*62
$GNGGA,020557.00,2258.19668,N,11354.29784,E,1,08,1.51,22.5,M,-3.3,M,,*6D
$GNGGA,020557.50,2258.19673,N,11354.29788,E,1,08,1.51,22.5,M,-3.3,M,,*6E
$GNGGA,020558.00,2258.19680,N,11354.29795,E,1,08,1.51,22.7,M,-3.3,M,,*66
$GNGGA,020558.50,2258.19688,N,11354.29805,E,1,08,1.51,22.7,M,-3.3,M,,*6D
$GNGGA,020559.00,2258.19697,N,11354.29816,E,1,08,1.51,22.7,M,-3.3,M,,*65
$GNGGA,020559.50,2258.19707,N,11354.29829,E,1,08,1.51,22.7,M,-3.3,M,,*64
$GNGGA,020600.00,2258.19718,N,11354.29842,E,1,08,1.51,22.7,M,-3.3,M,,*6D
$GNGGA,020600.50,2258.19731,N,11354.29857,E,1,08,1.51,22.7,M,-3.3,M,,*67
$GNGGA,020601.00,2258.19745,N,11354.29870,E,1,08,1.51,22.7,M,-3.3,M,,*65
$GNGGA,020601.50,2258.19758,N,11354.29879,E,1,08,1.51,22.9,M,-3.3,M,,*6B
$GNGGA,020602.00,2258.19771,N,11354.29888,E,1,08,1.51,22.9,M,-3.3,M,,*68
$GNGGA,020602.50,2258.19785,N,11354.29896,E,1,09,1.43,22.9,M,-3.3,M,,*6B
$GNGGA,020603.00,2258.19797,N,11354.29906,E,1,09,1.43,22.9,M,-3.3,M,,*64
$GNGGA,020603.50,2258.19811,N,11354.29913,E,1,09,1.43,23.0,M,-3.3,M,,*6C
$GNGGA,020604.00,2258.19827,N,11354.29919,E,1,09,1.43,23.2,M,-3.3,M,,*63
$GNGGA,020604.50,2258.19845,N,11354.29919,E,1,09,1.43,23.6,M,-3.3,M,,*66
$GNGGA,020605.00,2258.19863,N,11354.29927,E,1,09,1.43,23.8,M,-3.3,M,,*65
$GNGGA,020605.50,2258.19880,N,11354.29934,E,1,09,1.43,24.1,M,-3.3,M,,*61
$GNGGA,020606.00,2258.19904,N,11354.29931,E,1,09,1.43,24.6,M,-3.3,M,,*68
$GNGGA,020606.50,2258.19922,N,11354.29938,E,1,09,1.72,24.8,M,-3.3,M,,*6C
$GNGGA,020607.00,2258.19939,N,11354.29947,E,1,09,1.72,25.0,M,-3.3,M,,*63
$GNGGA,020607.50,2258.19959,N,11354.29946,E,1,09,1.43,25.5,M,-3.3,M,,*66
$GNGGA,020608.00,2258.19979,N,11354.29947,E,1,09,1.43,25.8,M,-3.3,M,,*62
$GNGGA,020608.50,2258.19997,N,11354.29960,E,1,09,1.72,26.0,M,-3.3,M,,*6B
$GNGGA,020609.00,2258.20013,N,11354.29979,E,1,09,1.72,26.1,M,-3.3,M,,*69
$GNGGA,020609.50,2258.20031,N,11354.29997,E,1,09,1.72,26.2,M,-3.3,M,,*6F
$GNGGA,020610.00,2258.20046,N,11354.30013,E,1,09,1.72,26.4,M,-3.3,M,,*69
$GNGGA,020610.50,2258.20064,N,11354.30028,E,1,08,1.72,26.6,M,-3.3,M,,*67
$GNGGA,020611.00,2258.20085,N,11354.30041,E,1,08,1.72,26.8,M,-3.3,M,,*6D
$GNGGA,020611.50,2258.20102,N,11354.30060,E,1,08,1.72,27.0,M,-3.3,M,,*6C
$GNGGA,020612.00,2258.20121,N,11354.30070,E,1,08,1.72,27.1,M,-3.3,M,,*6B
$GNGGA,020612.50,2258.20139,N,11354.30081,E,1,08,1.72,27.2,M,-3.3,M,,*6A
$GNGGA,020613.00,2258.20164,N,11354.30084,E,1,08,1.72,27.5,M,-3.3,M,,*64
$GNGGA,020613.50,2258.20185,N,11354.30091,E,1,08,1.72,27.8,M,-3.3,M,,*67
$GNGGA,020614.00,2258.20201,N,11354.30108,E,1,08,1.72,27.8,M,-3.3,M,,*6B
$GNGGA,020614.50,2258.20221,N,11354.30120,E,1,08,1.72,27.7,M,-3.3,M,,*69
$GNGGA,020615.00,2258.20240,N,11354.30133,E,1,09,1.72,27.7,M,-3.3,M,,*69
$GNGGA,020615.50,2258.20258,N,11354.30143,E,1,09,1.72,27.9,M,-3.3,M,,*6C
$GNGGA,020616.00,2258.20278,N,11354.30155,E,1,08,1.72,28.1,M,-3.3,M,,*69
$GNGGA,020616.50,2258.20296,N,11354.30158,E,1,08,1.72,28.3,M,-3.3,M,,*63
$GNGGA,020617.00,2258.20317,N,11354.30154,E,1,08,1.72,28.5,M,-3.3,M,,*65
$GNGGA,020617.50,2258.20331,N,11354.30170,E,1,08,1.72,28.5,M,-3.3,M,,*62
$GNGGA,020618.00,2258.20349,N,11354.30175,E,1,08,1.72,28.7,M,-3.3,M,,*60
$GNGGA,020618.50,2258.20357,N,11354.30173,E,1,08,1.72,28.8,M,-3.3,M,,*63
$GNGGA,020619.00,2258.20369,N,11354.30178,E,1,08,1.72,28.8,M,-3.3,M,,*61
$GNGGA,020619.50,2258.20383,N,11354.30178,E,1,08,1.72,29.0,M,-3.3,M,,*69
$GNGGA,020620.00,2258.20399,N,11354.30184,E,1,08,1.72,29.1,M,-3.3,M,,*6F
$GNGGA,020620.50,2258.20415,N,11354.30180,E,1,08,1.72,29.4,M,-3.3,M,,*68
$GNGGA,020621.00,2258.20435,N,11354.30166,E,1,08,1.72,29.8,M,-3.3,M,,*6A
$GNGGA,020621.50,2258.20456,N,11354.30138,E,1,08,1.72,30.4,M,-3.3,M,,*65
$GNGGA,020622.00,2258.20471,N,11354.30133,E,1,08,1.72,30.6,M,-3.3,M,,*6F
$GNGGA,020622.50,2258.20485,N,11354.30122,E,1,08,1.74,31.1,M,-3.3,M,,*61
$GNGGA,020623.00,2258.20492,N,11354.30129,E,1,09,1.72,31.3,M,-3.3,M,,*6D
$GNGGA,020623.50,2258.20499,N,11354.30129,E,1,08,1.72,31.4,M,-3.3,M,,*65
$GNGGA,020624.00,2258.20514,N,11354.30123,E,1,08,1.72,31.6,M,-3.3,M,,*6B
$GNGGA,020624.50,2258.20527,N,11354.30119,E,1,08,1.72,31.5,M,-3.3,M,,*64
$GNGGA,020625.00,2258.20537,N,11354.30107,E,1,08,1.72,30.8,M,-3.3,M,,*62
$GNGGA,020625.50,2258.20547,N,11354.30096,E,1,08,1.72,30.7,M,-3.3,M,,*66
$GNGGA,020626.00,2258.20565,N,11354.30088,E,1,08,1.72,31.2,M,-3.3,M,,*6B
$GNGGA,020626.50,2258.20591,N,11354.30052,E,1,08,1.72,31.4,M,-3.3,M,,*64
$GNGGA,020627.00,2258.20610,N,11354.30039,E,1,08,1.72,32.2,M,-3.3,M,,*62
$GNGGA,020627.50,2258.20627,N,11354.30048,E,1,08,1.72,32.5,M,-3.3,M,,*62
$GNGGA,020628.00,2258.20647,N,11354.30033,E,1,08,1.72,32.6,M,-3.3,M,,*61
$GNGGA,020628.50,2258.20666,N,11354.30019,E,1,08,1.72,32.7,M,-3.3,M,,*6E
$GNGGA,020629.00,2258.20687,N,11354.30002,E,1,08,1.72,33.0,M,-3.3,M,,*69
$GNGGA,020629.50,2258.20711,N,11354.29995,E,1,08,1.72,33.4,M,-3.3,M,,*69
$GNGGA,020630.00,2258.20730,N,11354.29974,E,1,08,1.72,33.2,M,-3.3,M,,*6E
$GNGGA,020630.50,2258.20747,N,11354.29967,E,1,08,1.72,33.8,M,-3.3,M,,*63
$GNGGA,020631.00,2258.20756,N,11354.29956,E,1,08,1.72,34.3,M,-3.3,M,,*69
$GNGGA,020631.50,2258.20769,N,11354.29950,E,1,08,1.72,34.2,M,-3.3,M,,*67
$GNGGA,020632.00,2258.20785,N,11354.29940,E,1,08,1.72,34.4,M,-3.3,M,,*64
$GNGGA,020632.50,2258.20801,N,11354.29932,E,1,08,1.72,34.6,M,-3.3,M,,*65
$GNGGA,020633.00,2258.20815,N,11354.29921,E,1,08,1.72,33.8,M,-3.3,M,,*6F
$GNGGA,020633.50,2258.20832,N,11354.29908,E,1,08,1.72,33.7,M,-3.3,M,,*6B
$GNGGA,020634.00,2258.20850,N,11354.29893,E,1,08,1.72,33.9,M,-3.3,M,,*60
$GNGGA,020634.50,2258.20866,N,11354.29873,E,1,08,1.72,33.9,M,-3.3,M,,*6E
$GNGGA,020635.00,2258.20885,N,11354.29855,E,1,08,1.72,34.1,M,-3.3,M,,*6C
$GNGGA,020635.50,2258.20903,N,11354.29837,E,1,08,1.72,34.2,M,-3.3,M,,*61
$GNGGA,020636.00,2258.20920,N,11354.29827,E,1,08,1.72,34.2,M,-3.3,M,,*67
$GNGGA,020636.50,2258.20938,N,11354.29816,E,1,07,1.74,34.1,M,-3.3,M,,*63
$GNGGA,020637.00,2258.20955,N,11354.29798,E,1,07,1.74,34.2,M,-3.3,M,,*66
$GNGGA,020637.50,2258.20967,N,11354.29782,E,1,07,1.74,34.4,M,-3.3,M,,*6F
$GNGGA,020638.00,2258.20977,N,11354.29761,E,1,07,1.74,34.4,M,-3.3,M,,*69
$GNGGA,020638.50,2258.20995,N,11354.29750,E,1,08,1.72,34.5,M,-3.3,M,,*6A
$GNGGA,020639.00,2258.21017,N,11354.29734,E,1,08,1.72,34.3,M,-3.3,M,,*68
$GNGGA,020639.50,2258.21034,N,11354.29717,E,1,08,1.72,34.4,M,-3.3,M,,*6A
$GNGGA,020640.00,2258.21049,N,11354.29701,E,1,08,1.72,34.7,M,-3.3,M,,*6F
$GNGGA,020640.50,2258.21058,N,11354.29681,E,1,08,1.72,34.8,M,-3.3,M,,*6C
$GNGGA,020641.00,2258.21070,N,11354.29664,E,1,08,1.72,35.0,M,-3.3,M,,*60
$GNGGA,020641.50,2258.21085,N,11354.29654,E,1,08,1.72,34.8,M,-3.3,M,,*65
$GNGGA,020642.00,2258.21100,N,11354.29645,E,1,08,1.72,34.9,M,-3.3,M,,*6E
$GNGGA,020642.50,2258.21113,N,11354.29629,E,1,08,1.72,34.9,M,-3.3,M,,*63
$GNGGA,020643.00,2258.21122,N,11354.29616,E,1,09,1.72,35.0,M,-3.3,M,,*60
$GNGGA,020643.50,2258.21136,N,11354.29603,E,1,09,1.72,34.9,M,-3.3,M,,*6C
$GNGGA,020644.00,2258.21149,N,11354.29591,E,1,08,1.72,34.9,M,-3.3,M,,*6F
$GNGGA,020644.50,2258.21158,N,11354.29560,E,1,10,1.42,36.2,M,-3.3,M,,*67
$GNGGA,020645.00,2258.21170,N,11354.29535,E,1,10,1.42,36.7,M,-3.3,M,,*6C
$GNGGA,020645.50,2258.21182,N,11354.29510,E,1,10,1.42,37.3,M,-3.3,M,,*66
$GNGGA,020646.00,2258.21196,N,11354.29487,E,1,10,1.42,37.7,M,-3.3,M,,*6E
$GNGGA,020646.50,2258.21213,N,11354.29469,E,1,09,1.70,38.2,M,-3.3,M,,*66
$GNGGA,020647.00,2258.21232,N,11354.29447,E,1,09,1.70,38.7,M,-3.3,M,,*68
$GNGGA,020647.50,2258.21249,N,11354.29429,E,1,09,1.70,39.8,M,-3.3,M,,*67
$GNGGA,020648.00,2258.21268,N,11354.29413,E,1,10,1.42,39.1,M,-3.3,M,,*67
$GNGGA,020648.50,2258.21284,N,11354.29394,E,1,10,1.70,39.4,M,-3.3,M,,*6C
$GNGGA,020649.00,2258.21299,N,11354.29376,E,1,10,1.70,38.6,M,-3.3,M,,*6B
$GNGGA,020649.50,2258.21274,N,11354.29355,E,1,09,1.70,40.1,M,-3.3,M,,*6C
$GNGGA,020650.00,2258.21283,N,11354.29334,E,1,09,1.70,41.0,M,-3.3,M,,*6E
$GNGGA,020650.50,2258.21283,N,11354.29311,E,1,09,1.70,41.6,M,-3.3,M,,*6A
$GNGGA,020651.00,2258.21297,N,11354.29291,E,1,09,1.70,42.6,M,-3.3,M,,*61
$GNGGA,020651.50,2258.21318,N,11354.29276,E,1,09,1.70,44.0,M,-3.3,M,,*6B
$GNGGA,020652.00,2258.21334,N,11354.29261,E,1,09,1.70,42.9,M,-3.3,M,,*6A
$GNGGA,020652.50,2258.21353,N,11354.29246,E,1,09,1.70,43.1,M,-3.3,M,,*62
$GNGGA,020653.00,2258.21373,N,11354.29224,E,1,09,1.70,43.6,M,-3.3,M,,*67
$GNGGA,020653.50,2258.21392,N,11354.29200,E,1,09,1.70,43.7,M,-3.3,M,,*6A
$GNGGA,020654.00,2258.21409,N,11354.29180,E,1,10,1.70,43.9,M,-3.3,M,,*60
$GNGGA,020654.50,2258.21418,N,11354.29191,E,1,10,1.22,42.3,M,-3.3,M,,*69
$GNGGA,020655.00,2258.21434,N,11354.29192,E,1,10,1.22,41.5,M,-3.3,M,,*65
$GNGGA,020655.50,2258.21446,N,11354.29189,E,1,10,1.22,40.7,M,-3.3,M,,*6C
$GNGGA,020656.00,2258.21458,N,11354.29188,E,1,10,1.22,40.3,M,-3.3,M,,*60
$GNGGA,020656.50,2258.21472,N,11354.29189,E,1,10,1.22,40.3,M,-3.3,M,,*6C
$GNGGA,020657.00,2258.21477,N,11354.29194,E,1,10,1.22,40.1,M,-3.3,M,,*63
$GNGGA,020657.50,2258.21486,N,11354.29183,E,1,10,1.39,40.0,M,-3.3,M,,*65
$GNGGA,020658.00,2258.21498,N,11354.29185,E,1,10,1.22,40.0,M,-3.3,M,,*6C
$GNGGA,020658.50,2258.21515,N,11354.29172,E,1,11,1.22,39.7,M,-3.3,M,,*6D
$GNGGA,020659.00,2258.21520,N,11354.29164,E,1,11,1.22,39.9,M,-3.3,M,,*66
$GNGGA,020659.50,2258.21503,N,11354.29159,E,1,11,1.22,40.5,M,-3.3,M,,*6E
$GNGGA,020700.00,2258.21505,N,11354.29163,E,1,11,1.22,40.1,M,-3.3,M,,*6D
$GNGGA,020700.50,2258.21507,N,11354.29173,E,1,10,1.22,39.8,M,-3.3,M,,*6D
$GNGGA,020701.00,2258.21511,N,11354.29177,E,1,09,1.39,39.6,M,-3.3,M,,*66
$GNGGA,020701.50,2258.21513,N,11354.29178,E,1,09,1.39,39.4,M,-3.3,M,,*6C
$GNGGA,020702.00,2258.21513,N,11354.29181,E,1,09,1.39,39.1,M,-3.3,M,,*69
$GNGGA,020702.50,2258.21513,N,11354.29183,E,1,09,1.39,39.0,M,-3.3,M,,*6F
$GNGGA,020703.00,2258.21513,N,11354.29188,E,1,09,1.39,38.7,M,-3.3,M,,*66
$GNGGA,020703.50,2258.21515,N,11354.29187,E,1,09,1.39,38.5,M,-3.3,M,,*68
$GNGGA,020704.00,2258.21515,N,11354.29190,E,1,09,1.39,38.3,M,-3.3,M,,*6A
$GNGGA,020704.50,2258.21512,N,11354.29187,E,1,09,1.39,38.3,M,-3.3,M,,*6E
$GNGGA,020705.00,2258.21506,N,11354.29186,E,1,09,1.39,38.3,M,-3.3,M,,*6E
$GNGGA,020705.50,2258.21510,N,11354.29188,E,1,09,1.39,38.1,M,-3.3,M,,*60
$GNGGA,020706.00,2258.21498,N,11354.29186,E,1,10,1.39,38.2,M,-3.3,M,,*62
$GNGGA,020706.50,2258.21506,N,11354.29189,E,1,10,1.39,37.9,M,-3.3,M,,*6A
$GNGGA,020707.00,2258.21517,N,11354.29191,E,1,10,1.39,37.5,M,-3.3,M,,*6B
$GNGGA,020707.50,2258.21507,N,11354.29194,E,1,10,1.39,37.6,M,-3.3,M,,*69
$GNGGA,020708.00,2258.21518,N,11354.29197,E,1,10,1.39,37.2,M,-3.3,M,,*6A
$GNGGA,020708.50,2258.21516,N,11354.29187,E,1,11,1.16,36.8,M,-3.3,M,,*67
$GNGGA,020709.00,2258.21527,N,11354.29183,E,1,11,1.16,36.2,M,-3.3,M,,*6F
$GNGGA,020709.50,2258.21543,N,11354.29179,E,1,12,1.11,35.4,M,-3.3,M,,*6C
$GNGGA,020710.00,2258.21554,N,11354.29175,E,1,12,1.11,34.9,M,-3.3,M,,*67
$GNGGA,020710.50,2258.21560,N,11354.29170,E,1,12,1.11,34.4,M,-3.3,M,,*6D
$GNGGA,020711.00,2258.21566,N,11354.29167,E,1,11,1.11,34.0,M,-3.3,M,,*6E
$GNGGA,020711.50,2258.21569,N,11354.29162,E,1,11,1.11,33.7,M,-3.3,M,,*61
$GNGGA,020712.00,2258.21571,N,11354.29159,E,1,11,1.11,33.5,M,-3.3,M,,*64
$GNGGA,020712.50,2258.21574,N,11354.29156,E,1,11,1.11,33.2,M,-3.3,M,,*6C
$GNGGA,020713.00,2258.21574,N,11354.29152,E,1,11,1.11,33.0,M,-3.3,M,,*6E
$GNGGA,020713.50,2258.21575,N,11354.29149,E,1,11,1.11,32.8,M,-3.3,M,,*69
$GNGGA,020714.00,2258.21579,N,11354.29146,E,1,11,1.11,32.5,M,-3.3,M,,*65
$GNGGA,020714.50,2258.21584,N,11354.29144,E,1,12,1.11,32.3,M,-3.3,M,,*65
$GNGGA,020715.00,2258.21587,N,11354.29141,E,1,12,1.11,32.0,M,-3.3,M,,*64
$GNGGA,020715.50,2258.21585,N,11354.29135,E,1,12,1.11,31.8,M,-3.3,M,,*6B
$GNGGA,020716.00,2258.21584,N,11354.29132,E,1,11,1.11,31.6,M,-3.3,M,,*66
$GNGGA,020716.50,2258.21583,N,11354.29127,E,1,11,1.11,31.4,M,-3.3,M,,*62
$GNGGA,020717.00,2258.21587,N,11354.29128,E,1,12,1.11,31.4,M,-3.3,M,,*6E
$GNGGA,020717.50,2258.21589,N,11354.29129,E,1,12,1.11,31.3,M,-3.3,M,,*63
$GNGGA,020718.00,2258.21585,N,11354.29128,E,1,12,1.11,31.3,M,-3.3,M,,*64
$GNGGA,020718.50,2258.21586,N,11354.29128,E,1,12,1.11,31.2,M,-3.3,M,,*63
$GNGGA,020719.00,2258.21588,N,11354.29127,E,1,12,1.11,31.0,M,-3.3,M,,*64
$GNGGA,020719.50,2258.21590,N,11354.29129,E,1,12,1.11,31.0,M,-3.3,M,,*66
$GNGGA,020720.00,2258.21592,N,11354.29132,E,1,12,1.00,31.0,M,-3.3,M,,*61
$GNGGA,020720.50,2258.21589,N,11354.29129,E,1,12,1.00,30.9,M,-3.3,M,,*6C
$GNGGA,020721.00,2258.21592,N,11354.29130,E,1,12,1.00,30.8,M,-3.3,M,,*6B
$GNGGA,020721.50,2258.21596,N,11354.29131,E,1,12,1.00,30.7,M,-3.3,M,,*64
$GNGGA,020722.00,2258.21597,N,11354.29132,E,1,12,1.00,30.7,M,-3.3,M,,*60
$GNGGA,020722.50,2258.21600,N,11354.29133,E,1,12,1.00,30.7,M,-3.3,M,,*69
$GNGGA,020723.00,2258.21603,N,11354.29133,E,1,12,1.00,30.6,M,-3.3,M,,*6F
$GNGGA,020723.50,2258.21605,N,11354.29134,E,1,12,1.00,30.6,M,-3.3,M,,*6B
$GNGGA,020724.00,2258.21608,N,11354.29136,E,1,12,1.00,30.5,M,-3.3,M,,*65
$GNGGA,020724.50,2258.21611,N,11354.29137,E,1,12,1.00,30.5,M,-3.3,M,,*69
$GNGGA,020725.00,2258.21613,N,11354.29137,E,1,12,1.00,30.5,M,-3.3,M,,*6F
$GNGGA,020725.50,2258.21617,N,11354.29137,E,1,12,1.00,30.4,M,-3.3,M,,*6F
$GNGGA,020726.00,2258.21619,N,11354.29136,E,1,12,1.00,30.2,M,-3.3,M,,*60
$GNGGA,020726.50,2258.21619,N,11354.29135,E,1,12,1.00,30.2,M,-3.3,M,,*66
$GNGGA,020727.00,2258.21621,N,11354.29134,E,1,12,1.00,30.1,M,-3.3,M,,*6B
$GNGGA,020727.50,2258.21625,N,11354.29134,E,1,12,1.00,30.0,M,-3.3,M,,*6B
$GNGGA,020728.00,2258.21630,N,11354.29135,E,1,12,1.00,29.9,M,-3.3,M,,*65
$GNGGA,020728.50,2258.21634,N,11354.29136,E,1,12,1.00,29.8,M,-3.3,M,,*66
$GNGGA,020729.00,2258.21639,N,11354.29136,E,1,12,1.00,29.7,M,-3.3,M,,*60
$GNGGA,020729.50,2258.21644,N,11354.29135,E,1,12,1.00,29.7,M,-3.3,M,,*6C
$GNGGA,020730.00,2258.21652,N,11354.29135,E,1,12,1.00,29.6,M,-3.3,M,,*67
$GNGGA,020730.50,2258.21660,N,11354.29132,E,1,12,1.00,29.5,M,-3.3,M,,*67
$GNGGA,020731.00,2258.21670,N,11354.29131,E,1,12,1.00,29.4,M,-3.3,M,,*60
$GNGGA,020731.50,2258.21675,N,11354.29129,E,1,11,1.11,29.4,M,-3.3,M,,*6A
$GNGGA,020732.00,2258.21682,N,11354.29126,E,1,11,1.11,29.4,M,-3.3,M,,*6B
$GNGGA,020732.50,2258.21686,N,11354.29118,E,1,12,1.00,29.3,M,-3.3,M,,*63
$GNGGA,020733.00,2258.21690,N,11354.29118,E,1,11,1.11,29.2,M,-3.3,M,,*62
$GNGGA,020733.50,2258.21690,N,11354.29118,E,1,11,1.11,29.2,M,-3.3,M,,*67
$GNGGA,020734.00,2258.21690,N,11354.29119,E,1,12,1.00,29.2,M,-3.3,M,,*67
$GNGGA,020734.50,2258.21696,N,11354.29119,E,1,12,1.00,29.1,M,-3.3,M,,*67
$GNGGA,020735.00,2258.21702,N,11354.29121,E,1,12,1.00,29.0,M,-3.3,M,,*65
$GNGGA,020735.50,2258.21708,N,11354.29127,E,1,12,1.00,29.0,M,-3.3,M,,*6C
$GNGGA,020736.00,2258.21711,N,11354.29129,E,1,12,1.00,28.9,M,-3.3,M,,*64
$GNGGA,020736.50,2258.21715,N,11354.29130,E,1,12,1.00,28.9,M,-3.3,M,,*6D
$GNGGA,020737.00,2258.21722,N,11354.29131,E,1,12,1.00,28.9,M,-3.3,M,,*6C
$GNGGA,020737.50,2258.21731,N,11354.29131,E,1,12,1.00,28.8,M,-3.3,M,,*6A
$GNGGA,020738.00,2258.21740,N,11354.29130,E,1,12,1.00,28.7,M,-3.3,M,,*68
$GNGGA,020738.50,2258.21750,N,11354.29130,E,1,12,1.00,28.8,M,-3.3,M,,*63
$GNGGA,020739.00,2258.21758,N,11354.29127,E,1,12,1.00,28.8,M,-3.3,M,,*69
$GNGGA,020739.50,2258.21768,N,11354.29125,E,1,12,1.00,28.9,M,-3.3,M,,*6C
$GNGGA,020740.00,2258.21773,N,11354.29118,E,1,12,1.00,28.9,M,-3.3,M,,*63
$GNGGA,020740.50,2258.21779,N,11354.29108,E,1,12,1.00,28.8,M,-3.3,M,,*6C
$GNGGA,020741.00,2258.21787,N,11354.29098,E,1,12,1.00,28.8,M,-3.3,M,,*61
$GNGGA,020741.50,2258.21798,N,11354.29097,E,1,12,1.00,29.0,M,-3.3,M,,*6C
$GNGGA,020742.00,2258.21801,N,11354.29087,E,1,12,1.00,29.1,M,-3.3,M,,*65
$GNGGA,020742.50,2258.21807,N,11354.29076,E,1,12,1.00,29.1,M,-3.3,M,,*68
$GNGGA,020743.00,2258.21818,N,11354.29064,E,1,12,1.11,29.1,M,-3.3,M,,*61
$GNGGA,020743.50,2258.21829,N,11354.29053,E,1,12,1.00,29.0,M,-3.3,M,,*63
$GNGGA,020744.00,2258.21837,N,11354.29038,E,1,12,1.00,29.1,M,-3.3,M,,*62
$GNGGA,020744.50,2258.21847,N,11354.29025,E,1,12,1.00,29.1,M,-3.3,M,,*6C
$GNGGA,020745.00,2258.21858,N,11354.29012,E,1,12,1.00,29.1,M,-3.3,M,,*62
$GNGGA,020745.50,2258.21868,N,11354.29000,E,1,12,1.00,29.0,M,-3.3,M,,*66
$GNGGA,020746.00,2258.21875,N,11354.28989,E,1,12,1.00,29.0,M,-3.3,M,,*65
$GNGGA,020746.50,2258.21885,N,11354.28973,E,1,12,1.00,29.0,M,-3.3,M,,*6A
$GNGGA,020747.00,2258.21894,N,11354.28958,E,1,12,1.00,29.1,M,-3.3,M,,*66
$GNGGA,020747.50,2258.21902,N,11354.28942,E,1,11,1.10,29.1,M,-3.3,M,,*64
$GNGGA,020748.00,2258.21911,N,11354.28924,E,1,11,1.10,29.0,M,-3.3,M,,*6D
$GNGGA,020748.50,2258.21915,N,11354.28912,E,1,11,1.10,28.8,M,-3.3,M,,*60
$GNGGA,020749.00,2258.21928,N,11354.28897,E,1,10,1.18,28.7,M,-3.3,M,,*60
$GNGGA,020749.50,2258.21936,N,11354.28881,E,1,10,1.18,28.6,M,-3.3,M,,*6C
$GNGGA,020750.00,2258.21938,N,11354.28864,E,1,11,1.04,28.7,M,-3.3,M,,*69
$GNGGA,020750.50,2258.21945,N,11354.28845,E,1,11,1.04,28.7,M,-3.3,M,,*65
$GNGGA,020751.00,2258.21951,N,11354.28832,E,1,11,1.04,28.5,M,-3.3,M,,*66
$GNGGA,020751.50,2258.21957,N,11354.28813,E,1,11,1.04,28.6,M,-3.3,M,,*65
$GNGGA,020752.00,2258.21973,N,11354.28801,E,1,12,1.04,28.7,M,-3.3,M,,*64
$GNGGA,020752.50,2258.21978,N,11354.28790,E,1,12,1.04,28.9,M,-3.3,M,,*63
$GNGGA,020753.00,2258.21988,N,11354.28779,E,1,12,0.88,28.8,M,-3.3,M,,*6B
$GNGGA,020753.50,2258.21985,N,11354.28757,E,1,12,0.88,29.2,M,-3.3,M,,*64
$GNGGA,020754.00,2258.21986,N,11354.28735,E,1,12,0.86,29.5,M,-3.3,M,,*68
$GNGGA,020754.50,2258.22000,N,11354.28723,E,1,12,0.86,29.5,M,-3.3,M,,*6E
$GNGGA,020755.00,2258.22004,N,11354.28702,E,1,12,0.86,29.8,M,-3.3,M,,*60
$GNGGA,020755.50,2258.22007,N,11354.28676,E,1,12,0.86,30.0,M,-3.3,M,,*64
$GNGGA,020756.00,2258.22022,N,11354.28656,E,1,12,1.07,30.0,M,-3.3,M,,*6F
$GNGGA,020756.50,2258.22028,N,11354.28638,E,1,12,0.93,30.0,M,-3.3,M,,*64
$GNGGA,020757.00,2258.22038,N,11354.28625,E,1,12,0.93,30.3,M,-3.3,M,,*6E
$GNGGA,020757.50,2258.22042,N,11354.28615,E,1,12,0.93,30.5,M,-3.3,M,,*63
$GNGGA,020758.00,2258.22047,N,11354.28595,E,1,12,0.93,30.5,M,-3.3,M,,*67
$GNGGA,020758.50,2258.22045,N,11354.28571,E,1,12,0.93,31.0,M,-3.3,M,,*6E
$GNGGA,020759.00,2258.22058,N,11354.28554,E,1,12,1.07,31.2,M,-3.3,M,,*6F
$GNGGA,020759.50,2258.22063,N,11354.28535,E,1,12,1.07,31.1,M,-3.3,M,,*66
$GNGGA,020800.00,2258.22067,N,11354.28511,E,1,12,1.07,31.4,M,-3.3,M,,*67
$GNGGA,020800.50,2258.22080,N,11354.28473,E,1,10,1.16,31.9,M,-3.3,M,,*61
$GNGGA,020801.00,2258.22090,N,11354.28451,E,1,10,1.16,32.1,M,-3.3,M,,*6F
$GNGGA,020801.50,2258.22101,N,11354.28435,E,1,11,1.07,32.4,M,-3.3,M,,*65
$GNGGA,020802.00,2258.22108,N,11354.28412,E,1,11,1.07,32.7,M,-3.3,M,,*6C
$GNGGA,020802.50,2258.22111,N,11354.28389,E,1,11,1.07,32.7,M,-3.3,M,,*64
$GNGGA,020803.00,2258.22115,N,11354.28368,E,1,11,1.07,32.9,M,-3.3,M,,*65
$GNGGA,020803.50,2258.22122,N,11354.28346,E,1,12,1.07,33.1,M,-3.3,M,,*62
$GNGGA,020804.00,2258.22123,N,11354.28325,E,1,12,1.07,33.1,M,-3.3,M,,*64
$GNGGA,020804.50,2258.22123,N,11354.28316,E,1,12,1.07,33.6,M,-3.3,M,,*66
$GNGGA,020805.00,2258.22120,N,11354.28302,E,1,12,1.07,33.7,M,-3.3,M,,*65
$GNGGA,020805.50,2258.22116,N,11354.28286,E,1,12,1.07,33.7,M,-3.3,M,,*68
$GNGGA,020806.00,2258.22110,N,11354.28291,E,1,11,1.22,33.3,M,-3.3,M,,*6E
$GNGGA,020806.50,2258.22110,N,11354.28282,E,1,11,1.22,33.3,M,-3.3,M,,*69
$GNGGA,020807.00,2258.22110,N,11354.28276,E,1,11,1.22,33.3,M,-3.3,M,,*66
$GNGGA,020807.50,2258.22108,N,11354.28267,E,1,11,1.22,33.2,M,-3.3,M,,*6B
$GNGGA,020808.00,2258.22105,N,11354.28264,E,1,11,1.22,32.9,M,-3.3,M,,*65
$GNGGA,020808.50,2258.22095,N,11354.28259,E,1,11,1.22,33.0,M,-3.3,M,,*6E
$GNGGA,020809.00,2258.22094,N,11354.28248,E,1,10,1.39,32.7,M,-3.3,M,,*66
$GNGGA,020809.50,2258.22089,N,11354.28233,E,1,09,1.72,32.7,M,-3.3,M,,*64
$GNGGA,020810.00,2258.22086,N,11354.28217,E,1,09,1.72,32.7,M,-3.3,M,,*60
$GNGGA,020810.50,2258.22082,N,11354.28201,E,1,09,1.72,32.6,M,-3.3,M,,*67
$GNGGA,020811.00,2258.22077,N,11354.28179,E,1,11,1.22,32.7,M,-3.3,M,,*68
$GNGGA,020811.50,2258.22071,N,11354.28165,E,1,11,1.70,32.8,M,-3.3,M,,*6E
$GNGGA,020812.00,2258.22068,N,11354.28136,E,1,11,1.22,33.1,M,-3.3,M,,*69
$GNGGA,020812.50,2258.22061,N,11354.28110,E,1,11,1.70,33.1,M,-3.3,M,,*66
$GNGGA,020813.00,2258.22055,N,11354.28084,E,1,11,1.22,33.3,M,-3.3,M,,*6C
$GNGGA,020813.50,2258.22042,N,11354.28063,E,1,11,1.08,33.6,M,-3.3,M,,*6B
$GNGGA,020814.00,2258.22038,N,11354.28017,E,1,11,1.08,34.0,M,-3.3,M,,*66
$GNGGA,020814.50,2258.22032,N,11354.27987,E,1,11,1.08,34.5,M,-3.3,M,,*63
$GNGGA,020815.00,2258.22023,N,11354.27966,E,1,11,1.08,34.4,M,-3.3,M,,*69
$GNGGA,020815.50,2258.22012,N,11354.27950,E,1,11,1.08,34.6,M,-3.3,M,,*69
$GNGGA,020816.00,2258.22002,N,11354.27931,E,1,11,1.08,34.4,M,-3.3,M,,*6B
$GNGGA,020816.50,2258.21993,N,11354.27917,E,1,11,1.08,34.3,M,-3.3,M,,*6F
$GNGGA,020817.00,2258.21973,N,11354.27922,E,1,11,1.08,34.6,M,-3.3,M,,*66
$GNGGA,020817.50,2258.21958,N,11354.27913,E,1,11,1.08,34.7,M,-3.3,M,,*69
$GNGGA,020818.00,2258.21942,N,11354.27904,E,1,11,1.08,34.9,M,-3.3,M,,*60
$GNGGA,020818.50,2258.21931,N,11354.27894,E,1,11,1.08,35.1,M,-3.3,M,,*60
$GNGGA,020819.00,2258.21920,N,11354.27876,E,1,11,1.08,35.2,M,-3.3,M,,*6B
$GNGGA,020819.50,2258.21907,N,11354.27865,E,1,11,1.08,35.2,M,-3.3,M,,*69
$GNGGA,020820.00,2258.21900,N,11354.27843,E,1,11,1.08,34.9,M,-3.3,M,,*6F
$GNGGA,020820.50,2258.21893,N,11354.27821,E,1,11,1.08,34.8,M,-3.3,M,,*64
$GNGGA,020821.00,2258.21880,N,11354.27810,E,1,10,1.42,34.7,M,-3.3,M,,*60
$GNGGA,020821.50,2258.21876,N,11354.27786,E,1,10,1.43,34.6,M,-3.3,M,,*6C
$GNGGA,020822.00,2258.21879,N,11354.27743,E,1,10,1.43,34.3,M,-3.3,M,,*69
$GNGGA,020822.50,2258.21873,N,11354.27717,E,1,10,1.43,34.2,M,-3.3,M,,*66
$GNGGA,020823.00,2258.21869,N,11354.27683,E,1,10,1.43,33.9,M,-3.3,M,,*69
$GNGGA,020823.50,2258.21854,N,11354.27666,E,1,11,1.43,33.8,M,-3.3,M,,*69
$GNGGA,020824.00,2258.21836,N,11354.27652,E,1,11,1.08,33.7,M,-3.3,M,,*68
$GNGGA,020824.50,2258.21832,N,11354.27616,E,1,11,1.08,33.5,M,-3.3,M,,*6B
$GNGGA,020825.00,2258.21812,N,11354.27616,E,1,11,1.08,33.5,M,-3.3,M,,*6D
$GNGGA,020825.50,2258.21801,N,11354.27601,E,1,12,0.93,33.5,M,-3.3,M,,*6C
$GNGGA,020826.00,2258.21780,N,11354.27604,E,1,12,1.08,33.7,M,-3.3,M,,*68
$GNGGA,020826.50,2258.21766,N,11354.27595,E,1,12,0.93,33.8,M,-3.3,M,,*62
$GNGGA,020827.00,2258.21757,N,11354.27577,E,1,12,0.93,33.9,M,-3.3,M,,*69
$GNGGA,020827.50,2258.21743,N,11354.27569,E,1,12,0.93,33.7,M,-3.3,M,,*68
$GNGGA,020828.00,2258.21735,N,11354.27546,E,1,12,0.93,33.1,M,-3.3,M,,*68
$GNGGA,020828.50,2258.21720,N,11354.27533,E,1,12,0.93,33.0,M,-3.3,M,,*6A
$GNGGA,020829.00,2258.21706,N,11354.27520,E,1,11,1.08,33.1,M,-3.3,M,,*69
$GNGGA,020829.50,2258.21692,N,11354.27506,E,1,11,1.08,33.2,M,-3.3,M,,*67
$GNGGA,020830.00,2258.21675,N,11354.27497,E,1,11,1.08,33.4,M,-3.3,M,,*6C
$GNGGA,020830.50,2258.21661,N,11354.27472,E,1,10,1.28,33.2,M,-3.3,M,,*62
$GNGGA,020831.00,2258.21646,N,11354.27452,E,1,10,1.28,33.1,M,-3.3,M,,*62
$GNGGA,020831.50,2258.21630,N,11354.27430,E,1,10,1.28,33.0,M,-3.3,M,,*63
$GNGGA,020832.00,2258.21613,N,11354.27408,E,1,10,1.28,33.0,M,-3.3,M,,*6F
$GNGGA,020832.50,2258.21600,N,11354.27385,E,1,10,1.28,32.9,M,-3.3,M,,*62
$GNGGA,020833.00,2258.21585,N,11354.27366,E,1,10,1.28,32.9,M,-3.3,M,,*65
$GNGGA,020833.50,2258.21573,N,11354.27346,E,1,10,1.28,32.9,M,-3.3,M,,*6B
$GNGGA,020834.00,2258.21558,N,11354.27325,E,1,11,1.08,32.8,M,-3.3,M,,*67
$GNGGA,020834.50,2258.21545,N,11354.27303,E,1,11,1.08,32.9,M,-3.3,M,,*6B
$GNGGA,020835.00,2258.21536,N,11354.27272,E,1,11,1.08,32.7,M,-3.3,M,,*62
$GNGGA,020835.50,2258.21521,N,11354.27250,E,1,12,0.93,32.5,M,-3.3,M,,*63
$GNGGA,020836.00,2258.21504,N,11354.27230,E,1,12,0.93,32.5,M,-3.3,M,,*64
$GNGGA,020836.50,2258.21489,N,11354.27209,E,1,12,0.93,32.6,M,-3.3,M,,*6C
$GNGGA,020837.00,2258.21471,N,11354.27193,E,1,12,0.93,32.8,M,-3.3,M,,*61
$GNGGA,020837.50,2258.21451,N,11354.27173,E,1,12,0.93,32.7,M,-3.3,M,,*67
$GNGGA,020838.00,2258.21431,N,11354.27157,E,1,12,0.93,32.7,M,-3.3,M,,*6D
$GNGGA,020838.50,2258.21414,N,11354.27138,E,1,12,0.93,32.6,M,-3.3,M,,*67
$GNGGA,020839.00,2258.21391,N,11354.27119,E,1,11,1.08,32.4,M,-3.3,M,,*68
$GNGGA,020839.50,2258.21377,N,11354.27095,E,1,12,0.93,32.2,M,-3.3,M,,*66
$GNGGA,020840.00,2258.21360,N,11354.27077,E,1,12,0.93,32.1,M,-3.3,M,,*64
$GNGGA,020840.50,2258.21349,N,11354.27043,E,1,11,1.01,31.6,M,-3.3,M,,*60
$GNGGA,020841.00,2258.21337,N,11354.27022,E,1,11,1.01,31.4,M,-3.3,M,,*68
$GNGGA,020841.50,2258.21320,N,11354.27004,E,1,11,1.01,31.1,M,-3.3,M,,*6A
$GNGGA,020842.00,2258.21298,N,11354.26993,E,1,11,1.01,30.9,M,-3.3,M,,*61
$GNGGA,020842.50,2258.21277,N,11354.26986,E,1,11,1.01,30.7,M,-3.3,M,,*6F
$GNGGA,020843.00,2258.21256,N,11354.26976,E,1,11,1.01,30.7,M,-3.3,M,,*67
$GNGGA,020843.50,2258.21235,N,11354.26977,E,1,11,1.01,30.5,M,-3.3,M,,*64
$GNGGA,020844.00,2258.21210,N,11354.26970,E,1,11,1.16,30.5,M,-3.3,M,,*60
$GNGGA,020844.50,2258.21194,N,11354.26974,E,1,12,0.93,30.3,M,-3.3,M,,*67
$GNGGA,020845.00,2258.21181,N,11354.26985,E,1,12,1.07,30.5,M,-3.3,M,,*63
$GNGGA,020845.50,2258.21178,N,11354.27007,E,1,12,0.86,30.6,M,-3.3,M,,*69
$GNGGA,020846.00,2258.21158,N,11354.27008,E,1,12,0.86,30.7,M,-3.3,M,,*63
$GNGGA,020846.50,2258.21149,N,11354.27031,E,1,12,1.06,30.6,M,-3.3,M,,*64
$GNGGA,020847.00,2258.21132,N,11354.27043,E,1,11,1.06,30.6,M,-3.3,M,,*6A
$GNGGA,020847.50,2258.21117,N,11354.27069,E,1,10,1.21,30.3,M,-3.3,M,,*61
$GNGGA,020848.00,2258.21106,N,11354.27092,E,1,11,1.06,30.1,M,-3.3,M,,*69
$GNGGA,020848.50,2258.21082,N,11354.27103,E,1,12,0.95,30.2,M,-3.3,M,,*63
$GNGGA,020849.00,2258.21068,N,11354.27119,E,1,11,1.06,30.1,M,-3.3,M,,*63
$GNGGA,020849.50,2258.21054,N,11354.27135,E,1,12,0.95,30.0,M,-3.3,M,,*6E
$GNGGA,020850.00,2258.21033,N,11354.27152,E,1,12,0.95,30.0,M,-3.3,M,,*63
$GNGGA,020850.50,2258.21010,N,11354.27171,E,1,11,1.10,29.8,M,-3.3,M,,*69
$GNGGA,020851.00,2258.20995,N,11354.27190,E,1,10,1.30,29.8,M,-3.3,M,,*64
$GNGGA,020851.50,2258.20982,N,11354.27212,E,1,11,1.06,29.9,M,-3.3,M,,*6B
$GNGGA,020852.00,2258.20962,N,11354.27236,E,1,10,1.30,29.8,M,-3.3,M,,*60
$GNGGA,020852.50,2258.20946,N,11354.27251,E,1,10,1.30,29.7,M,-3.3,M,,*6D
$GNGGA,020853.00,2258.20931,N,11354.27265,E,1,10,1.30,29.5,M,-3.3,M,,*6C
$GNGGA,020853.50,2258.20919,N,11354.27281,E,1,11,1.06,29.3,M,-3.3,M,,*6B
$GNGGA,020854.00,2258.20912,N,11354.27288,E,1,11,1.06,29.2,M,-3.3,M,,*6A
$GNGGA,020854.50,2258.20908,N,11354.27285,E,1,11,1.06,29.2,M,-3.3,M,,*69
$GNGGA,020855.00,2258.20905,N,11354.27280,E,1,11,1.06,29.1,M,-3.3,M,,*66
$GNGGA,020855.50,2258.20901,N,11354.27276,E,1,11,1.06,29.0,M,-3.3,M,,*6F
$GNGGA,020856.00,2258.20897,N,11354.27272,E,1,11,1.06,28.9,M,-3.3,M,,*6B
$GNGGA,020856.50,2258.20892,N,11354.27266,E,1,11,1.06,28.8,M,-3.3,M,,*6F
$GNGGA,020857.00,2258.20889,N,11354.27267,E,1,11,1.06,28.8,M,-3.3,M,,*60
$GNGGA,020857.50,2258.20886,N,11354.27266,E,1,11,1.06,28.8,M,-3.3,M,,*6B
$GNGGA,020858.00,2258.20880,N,11354.27259,E,1,11,1.06,28.8,M,-3.3,M,,*6B
$GNGGA,020858.50,2258.20878,N,11354.27253,E,1,11,1.06,28.6,M,-3.3,M,,*6D
$GNGGA,020859.00,2258.20874,N,11354.27247,E,1,11,1.06,28.6,M,-3.3,M,,*60
$GNGGA,020859.50,2258.20869,N,11354.27241,E,1,11,1.06,28.5,M,-3.3,M,,*6C
